{
  "generatedAt": "2026-05-23T15:52:17.099Z",
  "count": 40,
  "regions": [
    {
      "slug": "hyderabad-hmda-periphery-dp-plan",
      "productPurchaseID": "hyderabad_new",
      "menuKey": "Hyderabad",
      "displayName": "Hyderabad HMDA Periphery",
      "rawDistrictName": "",
      "shortName": "Hyderabad HMDA Periphery",
      "state": "Telangana",
      "iconUrl": "https://tiles.mapmagician.in/dpplans/0imagesGIS/hydrabad.png",
      "stateIconUrl": "https://tiles.mapmagician.in/dpplans/0imagesGIS/hydrabad.png",
      "centroid": {
        "lat": 17.45362,
        "lng": 78.478257,
        "minZoom": 8,
        "maxZoom": 18
      },
      "bbox": [
        78.004312,
        16.967978,
        79.049735,
        17.897048
      ],
      "villages": [
        {
          "name": "Bibinagar",
          "lat": 17.4578,
          "lng": 78.79541,
          "displayName": "Bibinagar",
          "slug": "bibinagar",
          "skipPage": false,
          "distanceFromHqKm": 33.6,
          "bearingFromHq": "east"
        },
        {
          "name": "Bommalaramaram",
          "lat": 17.57464,
          "lng": 78.7469,
          "displayName": "Bommalaramaram",
          "slug": "bommalaramaram",
          "skipPage": false,
          "distanceFromHqKm": 31.5,
          "bearingFromHq": "north-east"
        },
        {
          "name": "Buvanagiri",
          "lat": 17.49856,
          "lng": 78.91002,
          "displayName": "Buvanagiri",
          "slug": "buvanagiri",
          "skipPage": false,
          "distanceFromHqKm": 46.1,
          "bearingFromHq": "east"
        },
        {
          "name": "Chevella",
          "lat": 17.31894,
          "lng": 78.11464,
          "displayName": "Chevella",
          "slug": "chevella",
          "skipPage": false,
          "distanceFromHqKm": 41.4,
          "bearingFromHq": "west"
        },
        {
          "name": "Choutuppal",
          "lat": 17.26335,
          "lng": 78.87066,
          "displayName": "Choutuppal",
          "slug": "choutuppal",
          "skipPage": false,
          "distanceFromHqKm": 46.7,
          "bearingFromHq": "south-east"
        },
        {
          "name": "Faruqnagar",
          "lat": 17.08686,
          "lng": 78.20235,
          "displayName": "Faruqnagar",
          "slug": "faruqnagar",
          "skipPage": false,
          "distanceFromHqKm": 50.2,
          "bearingFromHq": "south-west"
        },
        {
          "name": "Ghatkesar",
          "lat": 17.43692,
          "lng": 78.70059,
          "displayName": "Ghatkesar",
          "slug": "ghatkesar",
          "skipPage": false,
          "distanceFromHqKm": 23.7,
          "bearingFromHq": "east"
        },
        {
          "name": "Hatnura",
          "lat": 17.68506,
          "lng": 78.20186,
          "displayName": "Hatnura",
          "slug": "hatnura",
          "skipPage": false,
          "distanceFromHqKm": 39,
          "bearingFromHq": "north-west"
        },
        {
          "name": "Hayathnagar",
          "lat": 17.30812,
          "lng": 78.685,
          "displayName": "Hayathnagar",
          "slug": "hayathnagar",
          "skipPage": false,
          "distanceFromHqKm": 27.3,
          "bearingFromHq": "south-east"
        },
        {
          "name": "Ibrahimpatnam Manchal",
          "lat": 17.19131,
          "lng": 78.66027,
          "displayName": "Ibrahimpatnam Manchal",
          "slug": "ibrahimpatnam-manchal",
          "skipPage": false,
          "distanceFromHqKm": 35,
          "bearingFromHq": "south-east"
        },
        {
          "name": "Jinnawaram FPLU",
          "lat": 17.65156,
          "lng": 78.34035,
          "displayName": "Jinnawaram FPLU",
          "slug": "jinnawaram-fplu",
          "skipPage": false,
          "distanceFromHqKm": 26.4,
          "bearingFromHq": "north-west"
        },
        {
          "name": "Kandukur",
          "lat": 17.06247,
          "lng": 78.48674,
          "displayName": "Kandukur",
          "slug": "kandukur",
          "skipPage": false,
          "distanceFromHqKm": 43.5,
          "bearingFromHq": "south"
        },
        {
          "name": "Kisara",
          "lat": 17.53027,
          "lng": 78.6659,
          "displayName": "Kisara",
          "slug": "kisara",
          "skipPage": false,
          "distanceFromHqKm": 21.6,
          "bearingFromHq": "north-east"
        },
        {
          "name": "Kothuru",
          "lat": 17.12842,
          "lng": 78.26582,
          "displayName": "Kothuru",
          "slug": "kothuru",
          "skipPage": false,
          "distanceFromHqKm": 42.6,
          "bearingFromHq": "south-west"
        },
        {
          "name": "Maheshwaram",
          "lat": 17.13778,
          "lng": 78.39352,
          "displayName": "Maheshwaram",
          "slug": "maheshwaram",
          "skipPage": false,
          "distanceFromHqKm": 36.3,
          "bearingFromHq": "south"
        },
        {
          "name": "Medchal Qutubullapur",
          "lat": 17.64064,
          "lng": 78.46674,
          "displayName": "Medchal Qutubullapur",
          "slug": "medchal-qutubullapur",
          "skipPage": false,
          "distanceFromHqKm": 20.8,
          "bearingFromHq": "north"
        },
        {
          "name": "Moinabad Rajendranagar",
          "lat": 17.3248,
          "lng": 78.28818,
          "displayName": "Moinabad Rajendranagar",
          "slug": "moinabad-rajendranagar",
          "skipPage": false,
          "distanceFromHqKm": 24.7,
          "bearingFromHq": "south-west"
        },
        {
          "name": "Mulug",
          "lat": 17.71631,
          "lng": 78.63889,
          "displayName": "Mulug",
          "slug": "mulug",
          "skipPage": false,
          "distanceFromHqKm": 33.8,
          "bearingFromHq": "north-east"
        },
        {
          "name": "Narsapur",
          "lat": 17.75063,
          "lng": 78.2638,
          "displayName": "Narsapur",
          "slug": "narsapur",
          "skipPage": false,
          "distanceFromHqKm": 40.1,
          "bearingFromHq": "north-west"
        },
        {
          "name": "Patancheruvu",
          "lat": 17.54991,
          "lng": 78.2163,
          "displayName": "Patancheruvu",
          "slug": "patancheruvu",
          "skipPage": false,
          "distanceFromHqKm": 29.8,
          "bearingFromHq": "west"
        },
        {
          "name": "Pochampalli",
          "lat": 17.35717,
          "lng": 78.81223,
          "displayName": "Pochampalli",
          "slug": "pochampalli",
          "skipPage": false,
          "distanceFromHqKm": 37,
          "bearingFromHq": "east"
        },
        {
          "name": "Sangareddy",
          "lat": 17.586484,
          "lng": 78.081933,
          "displayName": "Sangareddy",
          "slug": "sangareddy",
          "skipPage": false,
          "distanceFromHqKm": 44.5,
          "bearingFromHq": "west"
        },
        {
          "name": "Shahbad",
          "lat": 17.17981,
          "lng": 78.13107,
          "displayName": "Shahbad",
          "slug": "shahbad",
          "skipPage": false,
          "distanceFromHqKm": 47.8,
          "bearingFromHq": "south-west"
        },
        {
          "name": "Shahmirpet",
          "lat": 17.62423,
          "lng": 78.62416,
          "displayName": "Shahmirpet",
          "slug": "shahmirpet",
          "skipPage": false,
          "distanceFromHqKm": 24.5,
          "bearingFromHq": "north-east"
        },
        {
          "name": "Shamshabad",
          "lat": 17.23315,
          "lng": 78.3362,
          "displayName": "Shamshabad",
          "slug": "shamshabad",
          "skipPage": false,
          "distanceFromHqKm": 28.8,
          "bearingFromHq": "south-west"
        },
        {
          "name": "Shankarpalli Ramchandrapuram",
          "lat": 17.43141,
          "lng": 78.16524,
          "displayName": "Shankarpalli Ramchandrapuram",
          "slug": "shankarpalli-ramchandrapuram",
          "skipPage": false,
          "distanceFromHqKm": 33.3,
          "bearingFromHq": "west"
        },
        {
          "name": "Shivampet",
          "lat": 17.79715,
          "lng": 78.38087,
          "displayName": "Shivampet",
          "slug": "shivampet",
          "skipPage": false,
          "distanceFromHqKm": 39.6,
          "bearingFromHq": "north"
        },
        {
          "name": "Tupran",
          "lat": 17.80339,
          "lng": 78.47794,
          "displayName": "Tupran",
          "slug": "tupran",
          "skipPage": false,
          "distanceFromHqKm": 38.9,
          "bearingFromHq": "north"
        },
        {
          "name": "Wargal",
          "lat": 17.79116,
          "lng": 78.59261,
          "displayName": "Wargal",
          "slug": "wargal",
          "skipPage": false,
          "distanceFromHqKm": 39.4,
          "bearingFromHq": "north"
        },
        {
          "name": "Yacharam",
          "lat": 17.07615,
          "lng": 78.67112,
          "displayName": "Yacharam",
          "slug": "yacharam",
          "skipPage": false,
          "distanceFromHqKm": 46.7,
          "bearingFromHq": "south-east"
        }
      ],
      "sourceLink": "https://www.hmda.gov.in/masterplan-huda/",
      "price": "50",
      "focal": {
        "lat": 17.4578,
        "lng": 78.79541,
        "source": "village:Bibinagar",
        "zoom": 13
      },
      "fullMapUrl": "https://dpplans.com/maps.html?lat=17.4578&lng=78.79541&zoom=13",
      "embedUrl": "https://dpplans.com/maps.html?lat=17.4578&lng=78.79541&zoom=13&embed=1",
      "nearby": [],
      "faqs": [
        {
          "q": "Where can I view the Hyderabad HMDA Periphery Development Plan online?",
          "a": "You can view the Hyderabad HMDA Periphery DP map on Map Magician’s interactive viewer. The plan is overlaid on satellite imagery so you can identify zones, reservations and road lines for any plot in Hyderabad HMDA Periphery, Hyderabad HMDA Periphery (Draft)."
        },
        {
          "q": "Is the Hyderabad HMDA Periphery DP map official?",
          "a": "The published Development Plan referenced here mirrors the source documents from Hyderabad HMDA Periphery (Draft) Town Planning. The official PDFs are linked from the source: https://www.hmda.gov.in/masterplan-huda/"
        },
        {
          "q": "Can I see specific villages or sectors inside Hyderabad HMDA Periphery?",
          "a": "Yes — 30 sub-locations are indexed inside Hyderabad HMDA Periphery, including Bibinagar, Bommalaramaram, Buvanagiri, Chevella and more. Each can be opened directly from the search bar on the map."
        },
        {
          "q": "Is access free?",
          "a": "Browsing the Hyderabad HMDA Periphery region is free up to zoom level 14. High-detail (zoom 15–18) imagery is unlocked with a 7-day access pass."
        },
        {
          "q": "What devices does the Hyderabad HMDA Periphery DP viewer work on?",
          "a": "The viewer runs in any modern browser — desktop, tablet, or mobile. There is also a native Android app for offline access."
        }
      ],
      "features": [
        "Interactive zoom and pan over the entire Hyderabad HMDA Periphery Development Plan area",
        "Satellite + DP overlay so plot boundaries align with on-ground features",
        "Search by survey number, village or landmark inside Hyderabad HMDA Periphery",
        "Measure distances and areas directly on the Hyderabad HMDA Periphery map",
        "Mobile-friendly — view Hyderabad HMDA Periphery DP zones on the go",
        "30 indexed sub-locations inside Hyderabad HMDA Periphery"
      ]
    },
    {
      "slug": "bengaluru-dp-plan",
      "productPurchaseID": "bengaluru",
      "menuKey": "Bengaluru",
      "displayName": "Bengaluru",
      "rawDistrictName": "Bengaluru (Draft)",
      "shortName": "Bengaluru",
      "state": "Karnataka",
      "iconUrl": "https://tiles.mapmagician.in/dpplans/0imagesGIS/icon_banglore.png",
      "stateIconUrl": "https://tiles.mapmagician.in/dpplans/0imagesGIS/karnataka.png",
      "centroid": {
        "lat": 12.970689,
        "lng": 77.593131,
        "minZoom": 8,
        "maxZoom": 18
      },
      "bbox": [
        77.39264,
        12.760077,
        77.784508,
        13.183823
      ],
      "villages": [
        {
          "name": "Bengaluru City",
          "lat": 12.98919,
          "lng": 77.57963,
          "displayName": "Bengaluru City",
          "slug": "bengaluru-city",
          "skipPage": false,
          "distanceFromHqKm": 2.5,
          "bearingFromHq": "north-west"
        }
      ],
      "sourceLink": "http://www.dtcp.gov.in/en/approved-mp",
      "price": "50",
      "focal": {
        "lat": 12.98919,
        "lng": 77.57963,
        "source": "village:Bengaluru City",
        "zoom": 13
      },
      "fullMapUrl": "https://dpplans.com/maps.html?lat=12.98919&lng=77.57963&zoom=13",
      "embedUrl": "https://dpplans.com/maps.html?lat=12.98919&lng=77.57963&zoom=13&embed=1",
      "nearby": [
        {
          "slug": "vijayapura-dp-plan",
          "displayName": "Vijayapura",
          "shortName": "Vijayapura",
          "distanceKm": 473.9
        }
      ],
      "faqs": [
        {
          "q": "Where can I view the Bengaluru Development Plan online?",
          "a": "You can view the Bengaluru DP map on Map Magician’s interactive viewer. The plan is overlaid on satellite imagery so you can identify zones, reservations and road lines for any plot in Bengaluru, Karnataka."
        },
        {
          "q": "Is the Bengaluru DP map official?",
          "a": "The published Development Plan referenced here mirrors the source documents from Karnataka Town Planning. The official PDFs are linked from the source: http://www.dtcp.gov.in/en/approved-mp"
        },
        {
          "q": "Can I see specific villages or sectors inside Bengaluru?",
          "a": "Yes — 1 sub-locations are indexed inside Bengaluru, including Bengaluru City and more. Each can be opened directly from the search bar on the map."
        },
        {
          "q": "Is access free?",
          "a": "Browsing the Bengaluru region is free up to zoom level 14. High-detail (zoom 15–18) imagery is unlocked with a 7-day access pass. Note: this plan is currently a draft publication."
        },
        {
          "q": "What devices does the Bengaluru DP viewer work on?",
          "a": "The viewer runs in any modern browser — desktop, tablet, or mobile. There is also a native Android app for offline access."
        }
      ],
      "features": [
        "Interactive zoom and pan over the entire Bengaluru Development Plan area",
        "Satellite + DP overlay so plot boundaries align with on-ground features",
        "Search by survey number, village or landmark inside Bengaluru",
        "Measure distances and areas directly on the Bengaluru map",
        "Mobile-friendly — view Bengaluru DP zones on the go",
        "1 indexed sub-locations inside Bengaluru"
      ]
    },
    {
      "slug": "vijayapura-dp-plan",
      "productPurchaseID": "vijayapura",
      "menuKey": "Vijayapura",
      "displayName": "Vijayapura",
      "rawDistrictName": "Vijayapura",
      "shortName": "Vijayapura",
      "state": "Karnataka",
      "iconUrl": "https://tiles.mapmagician.in/dpplans/0imagesGIS/vijayapura_icon.png",
      "stateIconUrl": "https://tiles.mapmagician.in/dpplans/0imagesGIS/karnataka.png",
      "centroid": {
        "lat": 16.830571,
        "lng": 75.7228,
        "minZoom": null,
        "maxZoom": null
      },
      "bbox": [
        75.590262,
        16.697452,
        75.879373,
        16.97098
      ],
      "villages": [
        {
          "name": "Vijayapura City",
          "lat": 16.826847176415466,
          "lng": 75.7080054842231,
          "displayName": "Vijayapura City",
          "slug": "vijayapura-city",
          "skipPage": false,
          "distanceFromHqKm": 1.6,
          "bearingFromHq": "west"
        },
        {
          "name": "Ainapur",
          "lat": 16.82944278509585,
          "lng": 75.7681736192882,
          "displayName": "Ainapur",
          "slug": "ainapur",
          "skipPage": false,
          "distanceFromHqKm": 4.8,
          "bearingFromHq": "east"
        },
        {
          "name": "Aliyabad",
          "lat": 16.869366797460483,
          "lng": 75.77987991543677,
          "displayName": "Aliyabad",
          "slug": "aliyabad",
          "skipPage": false,
          "distanceFromHqKm": 7.5,
          "bearingFromHq": "north-east"
        },
        {
          "name": "Arakeri",
          "lat": 16.93478454609536,
          "lng": 75.68727212925795,
          "displayName": "Arakeri",
          "slug": "arakeri",
          "skipPage": false,
          "distanceFromHqKm": 12.2,
          "bearingFromHq": "north"
        },
        {
          "name": "Baratagi",
          "lat": 16.907132895506084,
          "lng": 75.75851299149,
          "displayName": "Baratagi",
          "slug": "baratagi",
          "skipPage": false,
          "distanceFromHqKm": 9.3,
          "bearingFromHq": "north-east"
        },
        {
          "name": "Bijapur (Rural)",
          "lat": 16.773814436917938,
          "lng": 75.7522129420733,
          "displayName": "Bijapur",
          "slug": "bijapur",
          "skipPage": false,
          "distanceFromHqKm": 7,
          "bearingFromHq": "south-east"
        },
        {
          "name": "Bijapur Cmc",
          "lat": 16.8144429812938,
          "lng": 75.71726522613201,
          "displayName": "Bijapur Cmc",
          "slug": "bijapur-cmc",
          "skipPage": false,
          "distanceFromHqKm": 1.9,
          "bearingFromHq": "south"
        },
        {
          "name": "Buranpur",
          "lat": 16.827625435581414,
          "lng": 75.78440951754501,
          "displayName": "Buranpur",
          "slug": "buranpur",
          "skipPage": false,
          "distanceFromHqKm": 6.6,
          "bearingFromHq": "east"
        },
        {
          "name": "Butnal",
          "lat": 16.877896954286765,
          "lng": 75.70842904776808,
          "displayName": "Butnal",
          "slug": "butnal",
          "skipPage": false,
          "distanceFromHqKm": 5.5,
          "bearingFromHq": "north"
        },
        {
          "name": "Dyaberi",
          "lat": 16.88140481471415,
          "lng": 75.8506466759376,
          "displayName": "Dyaberi",
          "slug": "dyaberi",
          "skipPage": false,
          "distanceFromHqKm": 14.7,
          "bearingFromHq": "north-east"
        },
        {
          "name": "Hanchinal PH",
          "lat": 16.864662861184065,
          "lng": 75.73923077030771,
          "displayName": "Hanchinal PH",
          "slug": "hanchinal-ph",
          "skipPage": false,
          "distanceFromHqKm": 4.2,
          "bearingFromHq": "north-east"
        },
        {
          "name": "Hittinahalli",
          "lat": 16.722835860524086,
          "lng": 75.75152603689416,
          "displayName": "Hittinahalli",
          "slug": "hittinahalli",
          "skipPage": false,
          "distanceFromHqKm": 12.4,
          "bearingFromHq": "south"
        },
        {
          "name": "Inganal",
          "lat": 16.910888901687013,
          "lng": 75.78859143167276,
          "displayName": "Inganal",
          "slug": "inganal",
          "skipPage": false,
          "distanceFromHqKm": 11.3,
          "bearingFromHq": "north-east"
        },
        {
          "name": "Itangihal",
          "lat": 16.875659630557557,
          "lng": 75.65674094400563,
          "displayName": "Itangihal",
          "slug": "itangihal",
          "skipPage": false,
          "distanceFromHqKm": 8.6,
          "bearingFromHq": "north-west"
        },
        {
          "name": "Jumnal",
          "lat": 16.724559865911832,
          "lng": 75.70548151808224,
          "displayName": "Jumnal",
          "slug": "jumnal",
          "skipPage": false,
          "distanceFromHqKm": 11.9,
          "bearingFromHq": "south"
        },
        {
          "name": "Kannal",
          "lat": 16.93986769630076,
          "lng": 75.75607337649335,
          "displayName": "Kannal",
          "slug": "kannal",
          "skipPage": false,
          "distanceFromHqKm": 12.7,
          "bearingFromHq": "north"
        },
        {
          "name": "Katakanahalli",
          "lat": 16.73863805567296,
          "lng": 75.79372207046437,
          "displayName": "Katakanahalli",
          "slug": "katakanahalli",
          "skipPage": false,
          "distanceFromHqKm": 12.7,
          "bearingFromHq": "south-east"
        },
        {
          "name": "Khatijapur",
          "lat": 16.749100592164396,
          "lng": 75.66481761268648,
          "displayName": "Khatijapur",
          "slug": "khatijapur",
          "skipPage": false,
          "distanceFromHqKm": 11,
          "bearingFromHq": "south-west"
        },
        {
          "name": "Madhabhavi/Madhabhawi",
          "lat": 16.83248634478295,
          "lng": 75.82906483834778,
          "displayName": "Madhabhavi",
          "slug": "madhabhavi-madhabhawi",
          "skipPage": false,
          "distanceFromHqKm": 11.3,
          "bearingFromHq": "east"
        },
        {
          "name": "Mahalbagayat Og",
          "lat": 16.798112671363732,
          "lng": 75.68224564060495,
          "displayName": "Mahalbagayat Og",
          "slug": "mahalbagayat-og",
          "skipPage": false,
          "distanceFromHqKm": 5.6,
          "bearingFromHq": "south-west"
        },
        {
          "name": "Navarasapur/Nawarasapur",
          "lat": 16.823463227251576,
          "lng": 75.65306712183616,
          "displayName": "Navarasapur",
          "slug": "navarasapur-nawarasapur",
          "skipPage": false,
          "distanceFromHqKm": 7.5,
          "bearingFromHq": "west"
        },
        {
          "name": "Rambhapur",
          "lat": 16.79804713423298,
          "lng": 75.75569155362982,
          "displayName": "Rambhapur",
          "slug": "rambhapur",
          "skipPage": false,
          "distanceFromHqKm": 5,
          "bearingFromHq": "south-east"
        },
        {
          "name": "Toravi/Torawi",
          "lat": 16.810668552494953,
          "lng": 75.63349286303442,
          "displayName": "Toravi",
          "slug": "toravi-torawi",
          "skipPage": false,
          "distanceFromHqKm": 9.8,
          "bearingFromHq": "west"
        },
        {
          "name": "Utnal",
          "lat": 16.71991419157616,
          "lng": 75.78756812118914,
          "displayName": "Utnal",
          "slug": "utnal",
          "skipPage": false,
          "distanceFromHqKm": 14.1,
          "bearingFromHq": "south-east"
        }
      ],
      "sourceLink": "http://www.vijayapura.uda.gov.in/en/master-plan",
      "price": "89",
      "focal": {
        "lat": 16.826847176415466,
        "lng": 75.7080054842231,
        "source": "village:Vijayapura City",
        "zoom": 13
      },
      "fullMapUrl": "https://dpplans.com/maps.html?lat=16.826847176415466&lng=75.7080054842231&zoom=13",
      "embedUrl": "https://dpplans.com/maps.html?lat=16.826847176415466&lng=75.7080054842231&zoom=13&embed=1",
      "nearby": [
        {
          "slug": "bengaluru-dp-plan",
          "displayName": "Bengaluru",
          "shortName": "Bengaluru",
          "distanceKm": 473.9
        }
      ],
      "faqs": [
        {
          "q": "Where can I view the Vijayapura Development Plan online?",
          "a": "You can view the Vijayapura DP map on Map Magician’s interactive viewer. The plan is overlaid on satellite imagery so you can identify zones, reservations and road lines for any plot in Vijayapura, Karnataka."
        },
        {
          "q": "Is the Vijayapura DP map official?",
          "a": "The published Development Plan referenced here mirrors the source documents from Karnataka Town Planning. The official PDFs are linked from the source: http://www.vijayapura.uda.gov.in/en/master-plan"
        },
        {
          "q": "Can I see specific villages or sectors inside Vijayapura?",
          "a": "Yes — 24 sub-locations are indexed inside Vijayapura, including Vijayapura City, Ainapur, Aliyabad, Arakeri and more. Each can be opened directly from the search bar on the map."
        },
        {
          "q": "Is access free?",
          "a": "Browsing the Vijayapura region is free up to zoom level 14. High-detail (zoom 15–18) imagery is unlocked with a 7-day access pass."
        },
        {
          "q": "What devices does the Vijayapura DP viewer work on?",
          "a": "The viewer runs in any modern browser — desktop, tablet, or mobile. There is also a native Android app for offline access."
        }
      ],
      "features": [
        "Interactive zoom and pan over the entire Vijayapura Development Plan area",
        "Satellite + DP overlay so plot boundaries align with on-ground features",
        "Search by survey number, village or landmark inside Vijayapura",
        "Measure distances and areas directly on the Vijayapura map",
        "Mobile-friendly — view Vijayapura DP zones on the go",
        "24 indexed sub-locations inside Vijayapura"
      ]
    },
    {
      "slug": "ahmednagar-dp-plan",
      "productPurchaseID": "ahmednagardp",
      "menuKey": "AhmednagarMaharashtra",
      "displayName": "Ahmednagar / Ahilyanagar",
      "rawDistrictName": "Ahmednagar / Ahilyanagar (Part) (new maps)",
      "shortName": "Ahmednagar",
      "state": "Maharashtra",
      "iconUrl": "https://tiles.mapmagician.in/dpplans/0imagesGIS/icon_ahmednagar_it_part.png",
      "stateIconUrl": "https://tiles.mapmagician.in/dpplans/0imagesGIS/maharashtra.png",
      "centroid": {
        "lat": 19.348703,
        "lng": 74.658668,
        "minZoom": 11,
        "maxZoom": 20
      },
      "bbox": [
        74.19788,
        19.020265,
        75.212373,
        19.77618
      ],
      "villages": [
        {
          "name": "Ahmednagar City (part)",
          "lat": 19.10479423207404,
          "lng": 74.7409545782568,
          "displayName": "Ahmednagar City",
          "slug": "ahmednagar-city",
          "skipPage": false,
          "distanceFromHqKm": 28.5,
          "bearingFromHq": "south"
        },
        {
          "name": "Ahmednagar I.T. Park",
          "lat": 19.1666801,
          "lng": 74.6949405,
          "displayName": "Ahmednagar I.T. Park",
          "slug": "ahmednagar-i-t-park",
          "skipPage": false,
          "distanceFromHqKm": 20.6,
          "bearingFromHq": "south"
        },
        {
          "name": "Shirdi",
          "lat": 19.766458538078524,
          "lng": 74.47953669361726,
          "displayName": "Shirdi",
          "slug": "shirdi",
          "skipPage": false,
          "distanceFromHqKm": 50.1,
          "bearingFromHq": "north"
        },
        {
          "name": "Sangamner",
          "lat": 19.574830310473807,
          "lng": 74.20663809759354,
          "displayName": "Sangamner",
          "slug": "sangamner",
          "skipPage": false,
          "distanceFromHqKm": 53.6,
          "bearingFromHq": "north-west"
        },
        {
          "name": "Pathardi",
          "lat": 19.172813490548062,
          "lng": 75.17333495498171,
          "displayName": "Pathardi",
          "slug": "pathardi",
          "skipPage": false,
          "distanceFromHqKm": 57.5,
          "bearingFromHq": "east"
        },
        {
          "name": "Bhistbag, Tal: Nagar",
          "lat": 19.136639227232486,
          "lng": 74.73328602081035,
          "displayName": "Bhistbag",
          "slug": "bhistbag-tal-nagar",
          "skipPage": false,
          "distanceFromHqKm": 24.8,
          "bearingFromHq": "south"
        },
        {
          "name": "Bolhegaon, Tal: Nagar",
          "lat": 19.12288697729397,
          "lng": 74.70668481193141,
          "displayName": "Bolhegaon",
          "slug": "bolhegaon-tal-nagar",
          "skipPage": false,
          "distanceFromHqKm": 25.6,
          "bearingFromHq": "south"
        },
        {
          "name": "Burudgaon, Tal: Nagar",
          "lat": 19.043963949530948,
          "lng": 74.74164781796595,
          "displayName": "Burudgaon",
          "slug": "burudgaon-tal-nagar",
          "skipPage": false,
          "distanceFromHqKm": 35,
          "bearingFromHq": "south"
        },
        {
          "name": "Chahurana Bk., Tal: Nagar",
          "lat": 19.110046730151776,
          "lng": 74.72710062297473,
          "displayName": "Chahurana Bk.",
          "slug": "chahurana-bk-tal-nagar",
          "skipPage": false,
          "distanceFromHqKm": 27.5,
          "bearingFromHq": "south"
        },
        {
          "name": "Chahurana Kh, Tal: Nagar",
          "lat": 19.08069579247425,
          "lng": 74.72947071125675,
          "displayName": "Chahurana Kh",
          "slug": "chahurana-kh-tal-nagar",
          "skipPage": false,
          "distanceFromHqKm": 30.7,
          "bearingFromHq": "south"
        },
        {
          "name": "Darewadi/Darevadi, Tal: Nagar",
          "lat": 19.079294727792064,
          "lng": 74.75214423636648,
          "displayName": "Darewadi",
          "slug": "darewadi-darevadi-tal-nagar",
          "skipPage": false,
          "distanceFromHqKm": 31.5,
          "bearingFromHq": "south"
        },
        {
          "name": "handalwadi/handalvadi, Tal: Pathardi",
          "lat": 19.144742793942893,
          "lng": 75.19110749491557,
          "displayName": "handalwadi",
          "slug": "handalwadi-handalvadi-tal-pathardi",
          "skipPage": false,
          "distanceFromHqKm": 60.3,
          "bearingFromHq": "east"
        },
        {
          "name": "Kedgaoninami, Tal: Nagar",
          "lat": 19.05973467422538,
          "lng": 74.70105126944867,
          "displayName": "Kedgaoninami",
          "slug": "kedgaoninami-tal-nagar",
          "skipPage": false,
          "distanceFromHqKm": 32.4,
          "bearingFromHq": "south"
        },
        {
          "name": "Maliwada/Malivada, Tal: Nagar",
          "lat": 19.078988446366157,
          "lng": 74.74475292873568,
          "displayName": "Maliwada",
          "slug": "maliwada-malivada-tal-nagar",
          "skipPage": false,
          "distanceFromHqKm": 31.3,
          "bearingFromHq": "south"
        },
        {
          "name": "Morchudnagar, Tal: Nagar",
          "lat": 19.093262461032726,
          "lng": 74.73095171235357,
          "displayName": "Morchudnagar",
          "slug": "morchudnagar-tal-nagar",
          "skipPage": false,
          "distanceFromHqKm": 29.4,
          "bearingFromHq": "south"
        },
        {
          "name": "Nagapur, Tal: Nagar",
          "lat": 19.150449931779622,
          "lng": 74.71096146040718,
          "displayName": "Nagapur",
          "slug": "nagapur-tal-nagar",
          "skipPage": false,
          "distanceFromHqKm": 22.7,
          "bearingFromHq": "south"
        },
        {
          "name": "NAGAR (Urban), Tal: Nagar",
          "lat": 19.098195093834047,
          "lng": 74.75691572703994,
          "displayName": "NAGAR",
          "slug": "nagar-tal-nagar",
          "skipPage": false,
          "distanceFromHqKm": 29.7,
          "bearingFromHq": "south"
        },
        {
          "name": "Nalegaon, Tal: Nagar",
          "lat": 19.099201087617313,
          "lng": 74.71884918649954,
          "displayName": "Nalegaon",
          "slug": "nalegaon-tal-nagar",
          "skipPage": false,
          "distanceFromHqKm": 28.5,
          "bearingFromHq": "south"
        },
        {
          "name": "Pathardi, Tal: Pathardi",
          "lat": 19.173023484358982,
          "lng": 75.17682541130355,
          "displayName": "Pathardi",
          "slug": "pathardi-tal-pathardi",
          "skipPage": false,
          "distanceFromHqKm": 57.8,
          "bearingFromHq": "east"
        },
        {
          "name": "Sangamner, Tal: Sangammer",
          "lat": 19.57112002798239,
          "lng": 74.20808013315836,
          "displayName": "Sangamner",
          "slug": "sangamner-tal-sangammer",
          "skipPage": false,
          "distanceFromHqKm": 53.3,
          "bearingFromHq": "north-west"
        },
        {
          "name": "Sawedi/Savedi, Tal: Nagar",
          "lat": 19.12352259877029,
          "lng": 74.73166915467885,
          "displayName": "Sawedi",
          "slug": "sawedi-savedi-tal-nagar",
          "skipPage": false,
          "distanceFromHqKm": 26.2,
          "bearingFromHq": "south"
        },
        {
          "name": "Shirdi Korhale, Tal: Rahata",
          "lat": 19.75935292256426,
          "lng": 74.48810603351171,
          "displayName": "Shirdi Korhale",
          "slug": "shirdi-korhale-tal-rahata",
          "skipPage": false,
          "distanceFromHqKm": 49,
          "bearingFromHq": "north"
        },
        {
          "name": "Tampurwadi/Tampurvadi, Tal: Pathardi",
          "lat": 19.171563877112103,
          "lng": 75.20233540726586,
          "displayName": "Tampurwadi",
          "slug": "tampurwadi-tampurvadi-tal-pathardi",
          "skipPage": false,
          "distanceFromHqKm": 60.4,
          "bearingFromHq": "east"
        }
      ],
      "sourceLink": "https://dtp.maharashtra.gov.in/home/downloads/dp/?cities=ahmednagar",
      "price": "50",
      "focal": {
        "lat": 19.10479423207404,
        "lng": 74.7409545782568,
        "source": "village:Ahmednagar City (part)",
        "zoom": 13
      },
      "fullMapUrl": "https://dpplans.com/maps.html?lat=19.10479423207404&lng=74.7409545782568&zoom=13",
      "embedUrl": "https://dpplans.com/maps.html?lat=19.10479423207404&lng=74.7409545782568&zoom=13&embed=1",
      "nearby": [
        {
          "slug": "aurangabad-dp-plan",
          "displayName": "Aurangabad/Chatrapati Sambhaji Nagar",
          "shortName": "Aurangabad",
          "distanceKm": 89.6
        },
        {
          "slug": "pmrda-development-plan",
          "displayName": "PMRDA",
          "shortName": "PMRDA",
          "distanceKm": 115.4
        },
        {
          "slug": "nashik-dp-plan",
          "displayName": "Nashik",
          "shortName": "Nashik",
          "distanceKm": 116.4
        },
        {
          "slug": "pune-dp-plan",
          "displayName": "Pune",
          "shortName": "Pune",
          "distanceKm": 118.8
        },
        {
          "slug": "jalna-region-dp-plan",
          "displayName": "Jalna Region",
          "shortName": "Jalna Region",
          "distanceKm": 147.3
        }
      ],
      "faqs": [
        {
          "q": "Where can I view the Ahmednagar Development Plan online?",
          "a": "You can view the Ahmednagar / Ahilyanagar DP map on Map Magician’s interactive viewer. The plan is overlaid on satellite imagery so you can identify zones, reservations and road lines for any plot in Ahmednagar, Maharashtra."
        },
        {
          "q": "Is the Ahmednagar DP map official?",
          "a": "The published Development Plan referenced here mirrors the source documents from Maharashtra Town Planning. The official PDFs are linked from the source: https://dtp.maharashtra.gov.in/home/downloads/dp/?cities=ahmednagar"
        },
        {
          "q": "Can I see specific villages or sectors inside Ahmednagar?",
          "a": "Yes — 23 sub-locations are indexed inside Ahmednagar, including Ahmednagar City (part), Ahmednagar I.T. Park, Shirdi, Sangamner and more. Each can be opened directly from the search bar on the map."
        },
        {
          "q": "Is access free?",
          "a": "Browsing the Ahmednagar region is free up to zoom level 14. High-detail (zoom 15–20) imagery is unlocked with a 7-day access pass."
        },
        {
          "q": "What devices does the Ahmednagar DP viewer work on?",
          "a": "The viewer runs in any modern browser — desktop, tablet, or mobile. There is also a native Android app for offline access."
        }
      ],
      "features": [
        "Interactive zoom and pan over the entire Ahmednagar Development Plan area",
        "Satellite + DP overlay so plot boundaries align with on-ground features",
        "Search by survey number, village or landmark inside Ahmednagar",
        "Measure distances and areas directly on the Ahmednagar map",
        "Mobile-friendly — view Ahmednagar DP zones on the go",
        "23 indexed sub-locations inside Ahmednagar"
      ]
    },
    {
      "slug": "akola-dp-plan",
      "productPurchaseID": "akola",
      "menuKey": "AkolaMaharashtra",
      "displayName": "Akola",
      "rawDistrictName": "Akola",
      "shortName": "Akola",
      "state": "Maharashtra",
      "iconUrl": "https://tiles.mapmagician.in/dpplans/0imagesGIS/akola_icon.png",
      "stateIconUrl": "https://tiles.mapmagician.in/dpplans/0imagesGIS/maharashtra.png",
      "centroid": {
        "lat": 20.985922,
        "lng": 77.044951,
        "minZoom": null,
        "maxZoom": null
      },
      "bbox": [
        76.926278,
        20.643088,
        77.079489,
        21.117797
      ],
      "villages": [
        {
          "name": "Akola",
          "lat": 20.706103583409888,
          "lng": 77.00715565439758,
          "displayName": "Akola",
          "slug": "akola",
          "skipPage": true,
          "distanceFromHqKm": 31.4,
          "bearingFromHq": "south"
        },
        {
          "name": "Akot",
          "lat": 21.096950368939506,
          "lng": 77.0553467893865,
          "displayName": "Akot",
          "slug": "akot",
          "skipPage": false,
          "distanceFromHqKm": 12.4,
          "bearingFromHq": "north"
        },
        {
          "name": "Akkalkot, Tal: Akola",
          "lat": 20.72397302592599,
          "lng": 76.96697958726554,
          "displayName": "Akkalkot",
          "slug": "akkalkot-tal-akola",
          "skipPage": false,
          "distanceFromHqKm": 30.2,
          "bearingFromHq": "south"
        },
        {
          "name": "Akola (Rural), Tal: Akola",
          "lat": 20.71813591050999,
          "lng": 76.98141706465621,
          "displayName": "Akola",
          "slug": "akola-tal-akola",
          "skipPage": false,
          "distanceFromHqKm": 30.5,
          "bearingFromHq": "south"
        },
        {
          "name": "Akoli Bk., Tal: Akola",
          "lat": 20.69109629191649,
          "lng": 76.99736273551383,
          "displayName": "Akoli Bk.",
          "slug": "akoli-bk-tal-akola",
          "skipPage": false,
          "distanceFromHqKm": 33.2,
          "bearingFromHq": "south"
        },
        {
          "name": "Akoli Kh., Tal: Akola",
          "lat": 20.68236763506199,
          "lng": 76.98520015688246,
          "displayName": "Akoli Kh.",
          "slug": "akoli-kh-tal-akola",
          "skipPage": false,
          "distanceFromHqKm": 34.3,
          "bearingFromHq": "south"
        },
        {
          "name": "Dabki, Tal: Akola",
          "lat": 20.716418044255725,
          "lng": 76.93968146015011,
          "displayName": "Dabki",
          "slug": "dabki-tal-akola",
          "skipPage": false,
          "distanceFromHqKm": 31.9,
          "bearingFromHq": "south"
        },
        {
          "name": "Gudadhi, Tal: Akola",
          "lat": 20.719322365862485,
          "lng": 77.04720849112444,
          "displayName": "Gudadhi",
          "slug": "gudadhi-tal-akola",
          "skipPage": false,
          "distanceFromHqKm": 29.6,
          "bearingFromHq": "south"
        },
        {
          "name": "Hingna Mhaispur, Tal: Akola",
          "lat": 20.66930905587452,
          "lng": 76.98584546996922,
          "displayName": "Hingna Mhaispur",
          "slug": "hingna-mhaispur-tal-akola",
          "skipPage": false,
          "distanceFromHqKm": 35.7,
          "bearingFromHq": "south"
        },
        {
          "name": "Kanadi, Tal: Akola",
          "lat": 20.677234584624753,
          "lng": 77.0437836322167,
          "displayName": "Kanadi",
          "slug": "kanadi-tal-akola",
          "skipPage": false,
          "distanceFromHqKm": 34.3,
          "bearingFromHq": "south"
        },
        {
          "name": "Kasbe Akot, Tal: Akot",
          "lat": 21.09115457560098,
          "lng": 77.06440844999122,
          "displayName": "Kasbe Akot",
          "slug": "kasbe-akot-tal-akot",
          "skipPage": false,
          "distanceFromHqKm": 11.9,
          "bearingFromHq": "north"
        },
        {
          "name": "Kaulkhed, Tal: Akola",
          "lat": 20.67856946956249,
          "lng": 77.00784849810263,
          "displayName": "Kaulkhed",
          "slug": "kaulkhed-tal-akola",
          "skipPage": false,
          "distanceFromHqKm": 34.4,
          "bearingFromHq": "south"
        },
        {
          "name": "Kemlapur, Tal: Akot",
          "lat": 21.0926262614578,
          "lng": 77.04893474726231,
          "displayName": "Kemlapur",
          "slug": "kemlapur-tal-akot",
          "skipPage": false,
          "distanceFromHqKm": 11.9,
          "bearingFromHq": "north"
        },
        {
          "name": "Khadki Bk, Tal: Akola",
          "lat": 20.667689561309412,
          "lng": 77.02176672992873,
          "displayName": "Khadki Bk",
          "slug": "khadki-bk-tal-akola",
          "skipPage": false,
          "distanceFromHqKm": 35.5,
          "bearingFromHq": "south"
        },
        {
          "name": "Kharab Bk, Tal: Akola",
          "lat": 20.74691020658025,
          "lng": 77.02015719786188,
          "displayName": "Kharab Bk",
          "slug": "kharab-bk-tal-akola",
          "skipPage": false,
          "distanceFromHqKm": 26.7,
          "bearingFromHq": "south"
        },
        {
          "name": "Malkapur, Tal: Akola",
          "lat": 20.70264640668465,
          "lng": 77.036508323679,
          "displayName": "Malkapur",
          "slug": "malkapur-tal-akola",
          "skipPage": false,
          "distanceFromHqKm": 31.5,
          "bearingFromHq": "south"
        },
        {
          "name": "Nababpur, Tal: Akola",
          "lat": 20.707116114802286,
          "lng": 76.98520134197015,
          "displayName": "Nababpur",
          "slug": "nababpur-tal-akola",
          "skipPage": false,
          "distanceFromHqKm": 31.6,
          "bearingFromHq": "south"
        },
        {
          "name": "Naigaon, Tal: Akola",
          "lat": 20.730437311581213,
          "lng": 76.99533857651745,
          "displayName": "Naigaon",
          "slug": "naigaon-tal-akola",
          "skipPage": false,
          "distanceFromHqKm": 28.9,
          "bearingFromHq": "south"
        },
        {
          "name": "Nizampur, Tal: Akola",
          "lat": 20.696262649014873,
          "lng": 76.98040527654177,
          "displayName": "Nizampur",
          "slug": "nizampur-tal-akola",
          "skipPage": false,
          "distanceFromHqKm": 32.9,
          "bearingFromHq": "south"
        },
        {
          "name": "Shahanwajpur/Shahanvajpur, Tal: Akola",
          "lat": 20.721178003143795,
          "lng": 76.97557003446651,
          "displayName": "Shahanwajpur",
          "slug": "shahanwajpur-shahanvajpur-tal-akola",
          "skipPage": false,
          "distanceFromHqKm": 30.3,
          "bearingFromHq": "south"
        },
        {
          "name": "Shiloda, Tal: Akola",
          "lat": 20.74604867801736,
          "lng": 76.99646848368977,
          "displayName": "Shiloda",
          "slug": "shiloda-tal-akola",
          "skipPage": false,
          "distanceFromHqKm": 27.1,
          "bearingFromHq": "south"
        },
        {
          "name": "Shivani/Shiwani, Tal: Akola",
          "lat": 20.70382420624005,
          "lng": 77.06702439628829,
          "displayName": "Shivani",
          "slug": "shivani-shiwani-tal-akola",
          "skipPage": false,
          "distanceFromHqKm": 31.5,
          "bearingFromHq": "south"
        },
        {
          "name": "Shivapur/Shiwapur, Tal: Akola",
          "lat": 20.65476605104028,
          "lng": 77.04744773398298,
          "displayName": "Shivapur",
          "slug": "shivapur-shiwapur-tal-akola",
          "skipPage": false,
          "distanceFromHqKm": 36.8,
          "bearingFromHq": "south"
        },
        {
          "name": "Shivar/Shiwar, Tal: Akola",
          "lat": 20.70822351021617,
          "lng": 77.06155381264207,
          "displayName": "Shivar",
          "slug": "shivar-shiwar-tal-akola",
          "skipPage": false,
          "distanceFromHqKm": 30.9,
          "bearingFromHq": "south"
        },
        {
          "name": "Somthana, Tal: Akola",
          "lat": 20.66156965251511,
          "lng": 76.99382962726474,
          "displayName": "Somthana",
          "slug": "somthana-tal-akola",
          "skipPage": false,
          "distanceFromHqKm": 36.5,
          "bearingFromHq": "south"
        },
        {
          "name": "Sukapur, Tal: Akola",
          "lat": 20.716115414000086,
          "lng": 76.98161162479799,
          "displayName": "Sukapur",
          "slug": "sukapur-tal-akola",
          "skipPage": false,
          "distanceFromHqKm": 30.7,
          "bearingFromHq": "south"
        },
        {
          "name": "Tajnapur, Tal: Akola",
          "lat": 20.718016122013363,
          "lng": 76.99941229523648,
          "displayName": "Tajnapur",
          "slug": "tajnapur-tal-akola",
          "skipPage": false,
          "distanceFromHqKm": 30.2,
          "bearingFromHq": "south"
        },
        {
          "name": "Tapalabad, Tal: Akola",
          "lat": 20.712672602696845,
          "lng": 76.97782236997939,
          "displayName": "Tapalabad",
          "slug": "tapalabad-tal-akola",
          "skipPage": false,
          "distanceFromHqKm": 31.2,
          "bearingFromHq": "south"
        },
        {
          "name": "Umari, Tal: Akola",
          "lat": 20.71910986305969,
          "lng": 77.03033335998352,
          "displayName": "Umari",
          "slug": "umari-tal-akola",
          "skipPage": false,
          "distanceFromHqKm": 29.7,
          "bearingFromHq": "south"
        },
        {
          "name": "Umari Pr Akola, Tal: Akola",
          "lat": 20.72561654096413,
          "lng": 77.01460674985432,
          "displayName": "Umari Pr Akola",
          "slug": "umari-pr-akola-tal-akola",
          "skipPage": false,
          "distanceFromHqKm": 29.1,
          "bearingFromHq": "south"
        },
        {
          "name": "Umerkhed, Tal: Akola",
          "lat": 20.71790117344647,
          "lng": 77.01840371946483,
          "displayName": "Umerkhed",
          "slug": "umerkhed-tal-akola",
          "skipPage": false,
          "distanceFromHqKm": 29.9,
          "bearingFromHq": "south"
        },
        {
          "name": "Wakapur/Vakapur, Tal: Akola",
          "lat": 20.732242560406444,
          "lng": 76.98135878090584,
          "displayName": "Wakapur",
          "slug": "wakapur-vakapur-tal-akola",
          "skipPage": false,
          "distanceFromHqKm": 29,
          "bearingFromHq": "south"
        }
      ],
      "sourceLink": "dtp.maharashtra.gov.in/home/downloads/dp/?cities=akola",
      "price": "50",
      "focal": {
        "lat": 20.706103583409888,
        "lng": 77.00715565439758,
        "source": "village:Akola",
        "zoom": 13
      },
      "fullMapUrl": "https://dpplans.com/maps.html?lat=20.706103583409888&lng=77.00715565439758&zoom=13",
      "embedUrl": "https://dpplans.com/maps.html?lat=20.706103583409888&lng=77.00715565439758&zoom=13&embed=1",
      "nearby": [
        {
          "slug": "amravati-dp-plan",
          "displayName": "Amravati",
          "shortName": "Amravati",
          "distanceKm": 40.6
        },
        {
          "slug": "washim-region-dp-plan",
          "displayName": "Washim Region",
          "shortName": "Washim Region",
          "distanceKm": 99.1
        },
        {
          "slug": "buldhana-region-dp-plan",
          "displayName": "Buldhana Region",
          "shortName": "Buldhana Region",
          "distanceKm": 102.2
        },
        {
          "slug": "hingoli-dp-plan",
          "displayName": "Hingoli",
          "shortName": "Hingoli",
          "distanceKm": 141.6
        },
        {
          "slug": "jalgaon-region-dp-plan",
          "displayName": "Jalgaon Region",
          "shortName": "Jalgaon Region",
          "distanceKm": 153.4
        }
      ],
      "faqs": [
        {
          "q": "Where can I view the Akola Development Plan online?",
          "a": "You can view the Akola DP map on Map Magician’s interactive viewer. The plan is overlaid on satellite imagery so you can identify zones, reservations and road lines for any plot in Akola, Maharashtra."
        },
        {
          "q": "Is the Akola DP map official?",
          "a": "The published Development Plan referenced here mirrors the source documents from Maharashtra Town Planning. The official PDFs are linked from the source: dtp.maharashtra.gov.in/home/downloads/dp/?cities=akola"
        },
        {
          "q": "Can I see specific villages or sectors inside Akola?",
          "a": "Yes — 32 sub-locations are indexed inside Akola, including Akola, Akot, Akkalkot, Tal: Akola, Akola (Rural), Tal: Akola and more. Each can be opened directly from the search bar on the map."
        },
        {
          "q": "Is access free?",
          "a": "Browsing the Akola region is free up to zoom level 14. High-detail (zoom 15–18) imagery is unlocked with a 7-day access pass."
        },
        {
          "q": "What devices does the Akola DP viewer work on?",
          "a": "The viewer runs in any modern browser — desktop, tablet, or mobile. There is also a native Android app for offline access."
        }
      ],
      "features": [
        "Interactive zoom and pan over the entire Akola Development Plan area",
        "Satellite + DP overlay so plot boundaries align with on-ground features",
        "Search by survey number, village or landmark inside Akola",
        "Measure distances and areas directly on the Akola map",
        "Mobile-friendly — view Akola DP zones on the go",
        "32 indexed sub-locations inside Akola"
      ]
    },
    {
      "slug": "amravati-dp-plan",
      "productPurchaseID": "amaravati",
      "menuKey": "AmaravatiMaharashtra",
      "displayName": "Amravati",
      "rawDistrictName": "Amravati (Updated)",
      "shortName": "Amravati",
      "state": "Maharashtra",
      "iconUrl": "https://tiles.mapmagician.in/dpplans/0imagesGIS/amaravati_icon.png",
      "stateIconUrl": "https://tiles.mapmagician.in/dpplans/0imagesGIS/maharashtra.png",
      "centroid": {
        "lat": 21.110501,
        "lng": 77.412536,
        "minZoom": null,
        "maxZoom": null
      },
      "bbox": [
        77.288846,
        20.837099,
        77.829327,
        21.177212
      ],
      "villages": [
        {
          "name": "Amravati",
          "lat": 20.935204045449645,
          "lng": 77.7522308649469,
          "displayName": "Amravati",
          "slug": "amravati",
          "skipPage": true,
          "distanceFromHqKm": 40.3,
          "bearingFromHq": "south-east"
        },
        {
          "name": "Anjangaon Surji",
          "lat": 21.166780432091986,
          "lng": 77.30785991404251,
          "displayName": "Anjangaon Surji",
          "slug": "anjangaon-surji",
          "skipPage": false,
          "distanceFromHqKm": 12.5,
          "bearingFromHq": "north-west"
        },
        {
          "name": "Aiwajpur/Aivajpur, Tal: Anjangaon-Surji",
          "lat": 21.17325799735869,
          "lng": 77.3245918521479,
          "displayName": "Aiwajpur",
          "slug": "aiwajpur-aivajpur-tal-anjangaon-surji",
          "skipPage": false,
          "distanceFromHqKm": 11.5,
          "bearingFromHq": "north-west"
        },
        {
          "name": "Ajitpur, Tal: Anjangaon-Surji",
          "lat": 21.17376134885349,
          "lng": 77.30079048451597,
          "displayName": "Ajitpur",
          "slug": "ajitpur-tal-anjangaon-surji",
          "skipPage": false,
          "distanceFromHqKm": 13.6,
          "bearingFromHq": "north-west"
        },
        {
          "name": "Akoli, Tal: Amaravati",
          "lat": 20.898314100294282,
          "lng": 77.72944938313366,
          "displayName": "Akoli",
          "slug": "akoli-tal-amaravati",
          "skipPage": false,
          "distanceFromHqKm": 40.5,
          "bearingFromHq": "south-east"
        },
        {
          "name": "Benod, Tal: Amaravati",
          "lat": 20.908715533139365,
          "lng": 77.78083398441898,
          "displayName": "Benod",
          "slug": "benod-tal-amaravati",
          "skipPage": false,
          "distanceFromHqKm": 44.3,
          "bearingFromHq": "south-east"
        },
        {
          "name": "Deogiri, Tal: Amaravati",
          "lat": 20.885345732096223,
          "lng": 77.77717211088218,
          "displayName": "Deogiri",
          "slug": "deogiri-tal-amaravati",
          "skipPage": false,
          "distanceFromHqKm": 45.4,
          "bearingFromHq": "south-east"
        },
        {
          "name": "Gambhirpur, Tal: Amaravati",
          "lat": 20.94272201165622,
          "lng": 77.73117641298005,
          "displayName": "Gambhirpur",
          "slug": "gambhirpur-tal-amaravati",
          "skipPage": false,
          "distanceFromHqKm": 38,
          "bearingFromHq": "south-east"
        },
        {
          "name": "Jewad/Jevad, Tal: Amaravati",
          "lat": 20.89932299899325,
          "lng": 77.76631350625964,
          "displayName": "Jewad",
          "slug": "jewad-jevad-tal-amaravati",
          "skipPage": false,
          "distanceFromHqKm": 43.6,
          "bearingFromHq": "south-east"
        },
        {
          "name": "Kasba Badnera, Tal: Amaravati",
          "lat": 20.8649631827193,
          "lng": 77.73314166863226,
          "displayName": "Kasba Badnera",
          "slug": "kasba-badnera-tal-amaravati",
          "skipPage": false,
          "distanceFromHqKm": 43,
          "bearingFromHq": "south-east"
        },
        {
          "name": "Khel Babuji, Tal: Anjangaon-Surji",
          "lat": 21.179713519439485,
          "lng": 77.3119993433056,
          "displayName": "Khel Babuji",
          "slug": "khel-babuji-tal-anjangaon-surji",
          "skipPage": false,
          "distanceFromHqKm": 13,
          "bearingFromHq": "north-west"
        },
        {
          "name": "Khel Gangaji, Tal: Anjangaon-Surji",
          "lat": 21.162357400216294,
          "lng": 77.30673642943019,
          "displayName": "Khel Gangaji",
          "slug": "khel-gangaji-tal-anjangaon-surji",
          "skipPage": false,
          "distanceFromHqKm": 12.4,
          "bearingFromHq": "north-west"
        },
        {
          "name": "Khel Hadole, Tal: Anjangaon-Surji",
          "lat": 21.16387465556002,
          "lng": 77.32229495386287,
          "displayName": "Khel Hadole",
          "slug": "khel-hadole-tal-anjangaon-surji",
          "skipPage": false,
          "distanceFromHqKm": 11.1,
          "bearingFromHq": "north-west"
        },
        {
          "name": "Khel Hagone, Tal: Anjangaon-Surji",
          "lat": 21.162038003222605,
          "lng": 77.31942459772308,
          "displayName": "Khel Hagone",
          "slug": "khel-hagone-tal-anjangaon-surji",
          "skipPage": false,
          "distanceFromHqKm": 11.2,
          "bearingFromHq": "north-west"
        },
        {
          "name": "Khel Hiraji, Tal: Anjangaon-Surji",
          "lat": 21.168013747188375,
          "lng": 77.32276623375253,
          "displayName": "Khel Hiraji",
          "slug": "khel-hiraji-tal-anjangaon-surji",
          "skipPage": false,
          "distanceFromHqKm": 11.3,
          "bearingFromHq": "north-west"
        },
        {
          "name": "Khel Khadse, Tal: Anjangaon-Surji",
          "lat": 21.16664295545026,
          "lng": 77.32189325526959,
          "displayName": "Khel Khadse",
          "slug": "khel-khadse-tal-anjangaon-surji",
          "skipPage": false,
          "distanceFromHqKm": 11.3,
          "bearingFromHq": "north-west"
        },
        {
          "name": "Khel Kokat, Tal: Anjangaon-Surji",
          "lat": 21.164613885248418,
          "lng": 77.29380496318754,
          "displayName": "Khel Kokat",
          "slug": "khel-kokat-tal-anjangaon-surji",
          "skipPage": false,
          "distanceFromHqKm": 13.7,
          "bearingFromHq": "north-west"
        },
        {
          "name": "Khel Krishnaji, Tal: Anjangaon-Surji",
          "lat": 21.16682542334223,
          "lng": 77.31212286814214,
          "displayName": "Khel Krishnaji",
          "slug": "khel-krishnaji-tal-anjangaon-surji",
          "skipPage": false,
          "distanceFromHqKm": 12.2,
          "bearingFromHq": "north-west"
        },
        {
          "name": "Lashkar Amravati/Lashkar Amrawati, Tal: Amaravati",
          "lat": 20.934947522692283,
          "lng": 77.76447032722824,
          "displayName": "Lashkar Amravati",
          "slug": "lashkar-amravati-lashkar-amrawati-tal-amaravati",
          "skipPage": false,
          "distanceFromHqKm": 41.4,
          "bearingFromHq": "south-east"
        },
        {
          "name": "Mahajanpur, Tal: Amaravati",
          "lat": 20.92480241799186,
          "lng": 77.7349735886909,
          "displayName": "Mahajanpur",
          "slug": "mahajanpur-tal-amaravati",
          "skipPage": false,
          "distanceFromHqKm": 39.3,
          "bearingFromHq": "south-east"
        },
        {
          "name": "Masle, Tal: Amaravati",
          "lat": 20.947011524770417,
          "lng": 77.80103631758159,
          "displayName": "Masle",
          "slug": "masle-tal-amaravati",
          "skipPage": false,
          "distanceFromHqKm": 44.2,
          "bearingFromHq": "south-east"
        },
        {
          "name": "Nagapur, Tal: Amaravati",
          "lat": 20.982781165895844,
          "lng": 77.77618084210832,
          "displayName": "Nagapur",
          "slug": "nagapur-tal-amaravati",
          "skipPage": false,
          "distanceFromHqKm": 40.3,
          "bearingFromHq": "east"
        },
        {
          "name": "Navsari/Nawsari, Tal: Amaravati",
          "lat": 20.96592233565485,
          "lng": 77.73493282253743,
          "displayName": "Navsari",
          "slug": "navsari-nawsari-tal-amaravati",
          "skipPage": false,
          "distanceFromHqKm": 37.1,
          "bearingFromHq": "south-east"
        },
        {
          "name": "Nimbha Kh., Tal: Amaravati",
          "lat": 20.88226209326057,
          "lng": 77.74834468197677,
          "displayName": "Nimbha Kh.",
          "slug": "nimbha-kh-tal-amaravati",
          "skipPage": false,
          "distanceFromHqKm": 43.1,
          "bearingFromHq": "south-east"
        },
        {
          "name": "Peth Amravati/Peth Amrawati, Tal: Amaravati",
          "lat": 20.924402269072292,
          "lng": 77.73460064788706,
          "displayName": "Peth Amravati",
          "slug": "peth-amravati-peth-amrawati-tal-amaravati",
          "skipPage": false,
          "distanceFromHqKm": 39.3,
          "bearingFromHq": "south-east"
        },
        {
          "name": "Rahatgaon, Tal: Amaravati",
          "lat": 20.973278337821245,
          "lng": 77.78480628513793,
          "displayName": "Rahatgaon",
          "slug": "rahatgaon-tal-amaravati",
          "skipPage": false,
          "distanceFromHqKm": 41.5,
          "bearingFromHq": "east"
        },
        {
          "name": "Rajapeth, Tal: Amaravati",
          "lat": 20.91904314008761,
          "lng": 77.7568421913423,
          "displayName": "Rajapeth",
          "slug": "rajapeth-tal-amaravati",
          "skipPage": false,
          "distanceFromHqKm": 41.6,
          "bearingFromHq": "south-east"
        },
        {
          "name": "Rasulpur, Tal: Amaravati",
          "lat": 20.934186459477466,
          "lng": 77.71392620932971,
          "displayName": "Rasulpur",
          "slug": "rasulpur-tal-amaravati",
          "skipPage": false,
          "distanceFromHqKm": 36.9,
          "bearingFromHq": "south-east"
        },
        {
          "name": "Saturne, Tal: Amaravati",
          "lat": 20.902841446804203,
          "lng": 77.74607676307875,
          "displayName": "Saturne",
          "slug": "saturne-tal-amaravati",
          "skipPage": false,
          "distanceFromHqKm": 41.6,
          "bearingFromHq": "south-east"
        },
        {
          "name": "Shahapur, Tal: Anjangaon-Surji",
          "lat": 21.172929615284474,
          "lng": 77.29250647433452,
          "displayName": "Shahapur",
          "slug": "shahapur-tal-anjangaon-surji",
          "skipPage": false,
          "distanceFromHqKm": 14.3,
          "bearingFromHq": "north-west"
        },
        {
          "name": "Shegaon, Tal: Amaravati",
          "lat": 20.961792173151487,
          "lng": 77.76278297964868,
          "displayName": "Shegaon",
          "slug": "shegaon-tal-amaravati",
          "skipPage": false,
          "distanceFromHqKm": 39.9,
          "bearingFromHq": "south-east"
        },
        {
          "name": "Sultanpur, Tal: Amaravati",
          "lat": 20.97932254278612,
          "lng": 77.73297204252066,
          "displayName": "Sultanpur",
          "slug": "sultanpur-tal-amaravati",
          "skipPage": false,
          "distanceFromHqKm": 36.3,
          "bearingFromHq": "south-east"
        },
        {
          "name": "Surji, Tal: Anjangaon-Surji",
          "lat": 21.163735356959442,
          "lng": 77.30135590712595,
          "displayName": "Surji",
          "slug": "surji-tal-anjangaon-surji",
          "skipPage": false,
          "distanceFromHqKm": 13,
          "bearingFromHq": "north-west"
        },
        {
          "name": "Tarkhed, Tal: Amaravati",
          "lat": 20.937586161723498,
          "lng": 77.74980599428838,
          "displayName": "Tarkhed",
          "slug": "tarkhed-tal-amaravati",
          "skipPage": false,
          "distanceFromHqKm": 39.9,
          "bearingFromHq": "south-east"
        },
        {
          "name": "Wadad/Vadad, Tal: Amaravati",
          "lat": 20.874318596201427,
          "lng": 77.77248189965826,
          "displayName": "Wadad",
          "slug": "wadad-vadad-tal-amaravati",
          "skipPage": false,
          "distanceFromHqKm": 45.7,
          "bearingFromHq": "south-east"
        },
        {
          "name": "Wadhoil/Vadhoil, Tal: Amaravati",
          "lat": 20.922137762152293,
          "lng": 77.7956459296387,
          "displayName": "Wadhoil",
          "slug": "wadhoil-vadhoil-tal-amaravati",
          "skipPage": false,
          "distanceFromHqKm": 44.9,
          "bearingFromHq": "south-east"
        },
        {
          "name": "Waruda/Varuda, Tal: Amaravati",
          "lat": 20.84744579769609,
          "lng": 77.7420679793564,
          "displayName": "Waruda",
          "slug": "waruda-varuda-tal-amaravati",
          "skipPage": false,
          "distanceFromHqKm": 45,
          "bearingFromHq": "south-east"
        }
      ],
      "sourceLink": "https://dtp.maharashtra.gov.in/home/downloads/dp/?cities=amravati",
      "price": "50",
      "focal": {
        "lat": 20.935204045449645,
        "lng": 77.7522308649469,
        "source": "village:Amravati",
        "zoom": 13
      },
      "fullMapUrl": "https://dpplans.com/maps.html?lat=20.935204045449645&lng=77.7522308649469&zoom=13",
      "embedUrl": "https://dpplans.com/maps.html?lat=20.935204045449645&lng=77.7522308649469&zoom=13&embed=1",
      "nearby": [
        {
          "slug": "akola-dp-plan",
          "displayName": "Akola",
          "shortName": "Akola",
          "distanceKm": 40.6
        },
        {
          "slug": "washim-region-dp-plan",
          "displayName": "Washim Region",
          "shortName": "Washim Region",
          "distanceKm": 116.3
        },
        {
          "slug": "buldhana-region-dp-plan",
          "displayName": "Buldhana Region",
          "shortName": "Buldhana Region",
          "distanceKm": 142.5
        },
        {
          "slug": "hingoli-dp-plan",
          "displayName": "Hingoli",
          "shortName": "Hingoli",
          "distanceKm": 157.6
        },
        {
          "slug": "nagpur-metropolitan-region-dp-plan",
          "displayName": "Nagpur Metropolitan Region",
          "shortName": "Nagpur Metropolitan Region",
          "distanceKm": 179.6
        }
      ],
      "faqs": [
        {
          "q": "Where can I view the Amravati Development Plan online?",
          "a": "You can view the Amravati DP map on Map Magician’s interactive viewer. The plan is overlaid on satellite imagery so you can identify zones, reservations and road lines for any plot in Amravati, Maharashtra."
        },
        {
          "q": "Is the Amravati DP map official?",
          "a": "The published Development Plan referenced here mirrors the source documents from Maharashtra Town Planning. The official PDFs are linked from the source: https://dtp.maharashtra.gov.in/home/downloads/dp/?cities=amravati"
        },
        {
          "q": "Can I see specific villages or sectors inside Amravati?",
          "a": "Yes — 37 sub-locations are indexed inside Amravati, including Amravati, Anjangaon Surji, Aiwajpur/Aivajpur, Tal: Anjangaon-Surji, Ajitpur, Tal: Anjangaon-Surji and more. Each can be opened directly from the search bar on the map."
        },
        {
          "q": "Is access free?",
          "a": "Browsing the Amravati region is free up to zoom level 14. High-detail (zoom 15–18) imagery is unlocked with a 7-day access pass."
        },
        {
          "q": "What devices does the Amravati DP viewer work on?",
          "a": "The viewer runs in any modern browser — desktop, tablet, or mobile. There is also a native Android app for offline access."
        }
      ],
      "features": [
        "Interactive zoom and pan over the entire Amravati Development Plan area",
        "Satellite + DP overlay so plot boundaries align with on-ground features",
        "Search by survey number, village or landmark inside Amravati",
        "Measure distances and areas directly on the Amravati map",
        "Mobile-friendly — view Amravati DP zones on the go",
        "37 indexed sub-locations inside Amravati"
      ]
    },
    {
      "slug": "aurangabad-dp-plan",
      "productPurchaseID": "districtaurangabad",
      "menuKey": "AurangabadMaharashtra",
      "displayName": "Aurangabad/Chatrapati Sambhaji Nagar",
      "rawDistrictName": "Aurangabad/Chatrapati Sambhaji Nagar (updated)",
      "shortName": "Aurangabad",
      "state": "Maharashtra",
      "iconUrl": "https://tiles.mapmagician.in/dpplans/0imagesGIS/icon_aurangabad.png",
      "stateIconUrl": "https://tiles.mapmagician.in/dpplans/0imagesGIS/maharashtra.png",
      "centroid": {
        "lat": 19.832795,
        "lng": 75.342583,
        "minZoom": null,
        "maxZoom": null
      },
      "bbox": [
        75.242024,
        19.457987,
        75.439479,
        19.950634
      ],
      "villages": [
        {
          "name": "Aurangabad",
          "lat": 19.878389566652828,
          "lng": 75.3250156132937,
          "displayName": "Aurangabad",
          "slug": "aurangabad",
          "skipPage": true,
          "distanceFromHqKm": 5.4,
          "bearingFromHq": "north"
        },
        {
          "name": "Paithan",
          "lat": 19.47768,
          "lng": 75.387317,
          "displayName": "Paithan",
          "slug": "paithan",
          "skipPage": false,
          "distanceFromHqKm": 39.8,
          "bearingFromHq": "south"
        },
        {
          "name": "Aurangabad, Tal: Aurangabad",
          "lat": 19.892369087003942,
          "lng": 75.31214995007117,
          "displayName": "Aurangabad",
          "slug": "aurangabad-tal-aurangabad",
          "skipPage": false,
          "distanceFromHqKm": 7.3,
          "bearingFromHq": "north-west"
        },
        {
          "name": "Banewadi/Banevadi, Tal: Aurangabad",
          "lat": 19.86594753852819,
          "lng": 75.29372379867947,
          "displayName": "Banewadi",
          "slug": "banewadi-banevadi-tal-aurangabad",
          "skipPage": false,
          "distanceFromHqKm": 6.3,
          "bearingFromHq": "north-west"
        },
        {
          "name": "Bhawsinghpura/Bhavsinghpura, Tal: Aurangabad",
          "lat": 19.904688217586347,
          "lng": 75.29395468854719,
          "displayName": "Bhawsinghpura",
          "slug": "bhawsinghpura-bhavsinghpura-tal-aurangabad",
          "skipPage": false,
          "distanceFromHqKm": 9.5,
          "bearingFromHq": "north-west"
        },
        {
          "name": "Brigwadi/Brigvadi, Tal: Aurangabad",
          "lat": 19.884192899530667,
          "lng": 75.38767580323392,
          "displayName": "Brigwadi",
          "slug": "brigwadi-brigvadi-tal-aurangabad",
          "skipPage": false,
          "distanceFromHqKm": 7.4,
          "bearingFromHq": "north-east"
        },
        {
          "name": "Chitkalthana, Tal: Aurangabad",
          "lat": 19.86592550860533,
          "lng": 75.41276172216322,
          "displayName": "Chitkalthana",
          "slug": "chitkalthana-tal-aurangabad",
          "skipPage": false,
          "distanceFromHqKm": 8.2,
          "bearingFromHq": "north-east"
        },
        {
          "name": "Devlai/Dewlai, Tal: Aurangabad",
          "lat": 19.84140806317275,
          "lng": 75.36173580933306,
          "displayName": "Devlai",
          "slug": "devlai-dewlai-tal-aurangabad",
          "skipPage": false,
          "distanceFromHqKm": 2.2,
          "bearingFromHq": "north-east"
        },
        {
          "name": "Etkhed_ jhagir, Tal: Aurangabad",
          "lat": 19.847043470789018,
          "lng": 75.29897048263993,
          "displayName": "Etkhed_ jhagir",
          "slug": "etkhed-jhagir-tal-aurangabad",
          "skipPage": false,
          "distanceFromHqKm": 4.8,
          "bearingFromHq": "west"
        },
        {
          "name": "Garkheda, Tal: Aurangabad",
          "lat": 19.861921840537423,
          "lng": 75.35904584158057,
          "displayName": "Garkheda",
          "slug": "garkheda-tal-aurangabad",
          "skipPage": false,
          "distanceFromHqKm": 3.7,
          "bearingFromHq": "north-east"
        },
        {
          "name": "Harsul, Tal: Aurangabad",
          "lat": 19.91904639065131,
          "lng": 75.35549372204191,
          "displayName": "Harsul",
          "slug": "harsul-tal-aurangabad",
          "skipPage": false,
          "distanceFromHqKm": 9.7,
          "bearingFromHq": "north"
        },
        {
          "name": "Hatesinghpura, Tal: Aurangabad",
          "lat": 19.896547590928716,
          "lng": 75.35596646604124,
          "displayName": "Hatesinghpura",
          "slug": "hatesinghpura-tal-aurangabad",
          "skipPage": false,
          "distanceFromHqKm": 7.2,
          "bearingFromHq": "north"
        },
        {
          "name": "himayatnagar, Tal: Aurangabad",
          "lat": 19.903066669479674,
          "lng": 75.33223908029284,
          "displayName": "himayatnagar",
          "slug": "himayatnagar-tal-aurangabad",
          "skipPage": false,
          "distanceFromHqKm": 7.9,
          "bearingFromHq": "north"
        },
        {
          "name": "Jadhavwadi/Jadhawvadi, Tal: Aurangabad",
          "lat": 19.902885850845873,
          "lng": 75.3630613229189,
          "displayName": "Jadhavwadi",
          "slug": "jadhavwadi-jadhawvadi-tal-aurangabad",
          "skipPage": false,
          "distanceFromHqKm": 8.1,
          "bearingFromHq": "north"
        },
        {
          "name": "Jaswantpura/Jasvantpura, Tal: Aurangabad",
          "lat": 19.885776063889654,
          "lng": 75.3573107230488,
          "displayName": "Jaswantpura",
          "slug": "jaswantpura-jasvantpura-tal-aurangabad",
          "skipPage": false,
          "distanceFromHqKm": 6.1,
          "bearingFromHq": "north"
        },
        {
          "name": "Kanchanpur, Tal: Aurangabad",
          "lat": 19.83026854557929,
          "lng": 75.29037848996633,
          "displayName": "Kanchanpur",
          "slug": "kanchanpur-tal-aurangabad",
          "skipPage": false,
          "distanceFromHqKm": 5.5,
          "bearingFromHq": "west"
        },
        {
          "name": "Mehsanatpur, Tal: Aurangabad",
          "lat": 19.88021007527527,
          "lng": 75.38114389570592,
          "displayName": "Mehsanatpur",
          "slug": "mehsanatpur-tal-aurangabad",
          "skipPage": false,
          "distanceFromHqKm": 6.6,
          "bearingFromHq": "north-east"
        },
        {
          "name": "Mukandwadi/Mukandvadi, Tal: Aurangabad",
          "lat": 19.86297011810242,
          "lng": 75.37827008944677,
          "displayName": "Mukandwadi",
          "slug": "mukandwadi-mukandvadi-tal-aurangabad",
          "skipPage": false,
          "distanceFromHqKm": 5,
          "bearingFromHq": "north-east"
        },
        {
          "name": "Murtjapur, Tal: Aurangabad",
          "lat": 19.859491526907807,
          "lng": 75.39011095915961,
          "displayName": "Murtjapur",
          "slug": "murtjapur-tal-aurangabad",
          "skipPage": false,
          "distanceFromHqKm": 5.8,
          "bearingFromHq": "north-east"
        },
        {
          "name": "Nakshtrawadi/Nakshtravadi, Tal: Aurangabad",
          "lat": 19.81624411489568,
          "lng": 75.28509360958812,
          "displayName": "Nakshtrawadi",
          "slug": "nakshtrawadi-nakshtravadi-tal-aurangabad",
          "skipPage": false,
          "distanceFromHqKm": 6.3,
          "bearingFromHq": "west"
        },
        {
          "name": "Nanakwadi/Nanakvadi, Tal: Aurangabad",
          "lat": 19.904061256896913,
          "lng": 75.37623325269324,
          "displayName": "Nanakwadi",
          "slug": "nanakwadi-nanakvadi-tal-aurangabad",
          "skipPage": false,
          "distanceFromHqKm": 8.7,
          "bearingFromHq": "north-east"
        },
        {
          "name": "Naregaon, Tal: Aurangabad",
          "lat": 19.893496606812587,
          "lng": 75.38256073766964,
          "displayName": "Naregaon",
          "slug": "naregaon-tal-aurangabad",
          "skipPage": false,
          "distanceFromHqKm": 7.9,
          "bearingFromHq": "north-east"
        },
        {
          "name": "paharsinghpura, Tal: Aurangabad",
          "lat": 19.90861305409854,
          "lng": 75.31252164293518,
          "displayName": "paharsinghpura",
          "slug": "paharsinghpura-tal-aurangabad",
          "skipPage": false,
          "distanceFromHqKm": 9,
          "bearingFromHq": "north"
        },
        {
          "name": "Satara, Tal: Aurangabad",
          "lat": 19.837273818041353,
          "lng": 75.32673352778308,
          "displayName": "Satara",
          "slug": "satara-tal-aurangabad",
          "skipPage": false,
          "distanceFromHqKm": 1.7,
          "bearingFromHq": "west"
        },
        {
          "name": "Satara Tanda, Tal: Aurangabad",
          "lat": 19.813880233074176,
          "lng": 75.33365756053325,
          "displayName": "Satara Tanda",
          "slug": "satara-tanda-tal-aurangabad",
          "skipPage": false,
          "distanceFromHqKm": 2.3,
          "bearingFromHq": "south-west"
        },
        {
          "name": "shahnurwadi/shahnurvadi, Tal: Aurangabad",
          "lat": 19.85772826562449,
          "lng": 75.33333933668003,
          "displayName": "shahnurwadi",
          "slug": "shahnurwadi-shahnurvadi-tal-aurangabad",
          "skipPage": false,
          "distanceFromHqKm": 2.9,
          "bearingFromHq": "north"
        }
      ],
      "sourceLink": "https://dtp.maharashtra.gov.in/home/downloads/dp/?cities=aurangabad",
      "price": "50",
      "focal": {
        "lat": 19.878389566652828,
        "lng": 75.3250156132937,
        "source": "village:Aurangabad",
        "zoom": 13
      },
      "fullMapUrl": "https://dpplans.com/maps.html?lat=19.878389566652828&lng=75.3250156132937&zoom=13",
      "embedUrl": "https://dpplans.com/maps.html?lat=19.878389566652828&lng=75.3250156132937&zoom=13&embed=1",
      "nearby": [
        {
          "slug": "jalna-region-dp-plan",
          "displayName": "Jalna Region",
          "shortName": "Jalna Region",
          "distanceKm": 64.9
        },
        {
          "slug": "ahmednagar-dp-plan",
          "displayName": "Ahmednagar / Ahilyanagar",
          "shortName": "Ahmednagar",
          "distanceKm": 89.6
        },
        {
          "slug": "buldhana-region-dp-plan",
          "displayName": "Buldhana Region",
          "shortName": "Buldhana Region",
          "distanceKm": 118
        },
        {
          "slug": "jalgaon-region-dp-plan",
          "displayName": "Jalgaon Region",
          "shortName": "Jalgaon Region",
          "distanceKm": 131.9
        },
        {
          "slug": "dhule-dp-plan",
          "displayName": "Dhule",
          "shortName": "Dhule",
          "distanceKm": 132.5
        }
      ],
      "faqs": [
        {
          "q": "Where can I view the Aurangabad Development Plan online?",
          "a": "You can view the Aurangabad/Chatrapati Sambhaji Nagar DP map on Map Magician’s interactive viewer. The plan is overlaid on satellite imagery so you can identify zones, reservations and road lines for any plot in Aurangabad, Maharashtra."
        },
        {
          "q": "Is the Aurangabad DP map official?",
          "a": "The published Development Plan referenced here mirrors the source documents from Maharashtra Town Planning. The official PDFs are linked from the source: https://dtp.maharashtra.gov.in/home/downloads/dp/?cities=aurangabad"
        },
        {
          "q": "Can I see specific villages or sectors inside Aurangabad?",
          "a": "Yes — 26 sub-locations are indexed inside Aurangabad, including Aurangabad, Paithan, Aurangabad, Tal: Aurangabad, Banewadi/Banevadi, Tal: Aurangabad and more. Each can be opened directly from the search bar on the map."
        },
        {
          "q": "Is access free?",
          "a": "Browsing the Aurangabad region is free up to zoom level 14. High-detail (zoom 15–18) imagery is unlocked with a 7-day access pass."
        },
        {
          "q": "What devices does the Aurangabad DP viewer work on?",
          "a": "The viewer runs in any modern browser — desktop, tablet, or mobile. There is also a native Android app for offline access."
        }
      ],
      "features": [
        "Interactive zoom and pan over the entire Aurangabad Development Plan area",
        "Satellite + DP overlay so plot boundaries align with on-ground features",
        "Search by survey number, village or landmark inside Aurangabad",
        "Measure distances and areas directly on the Aurangabad map",
        "Mobile-friendly — view Aurangabad DP zones on the go",
        "26 indexed sub-locations inside Aurangabad"
      ]
    },
    {
      "slug": "bhandara-region-dp-plan",
      "productPurchaseID": "bhandara",
      "menuKey": "BhandaraMaharashtra",
      "displayName": "Bhandara Region",
      "rawDistrictName": "Bhandara Region",
      "shortName": "Bhandara Region",
      "state": "Maharashtra",
      "iconUrl": "https://tiles.mapmagician.in/dpplans/0imagesGIS/bhandara_icon.png",
      "stateIconUrl": "https://tiles.mapmagician.in/dpplans/0imagesGIS/maharashtra.png",
      "centroid": {
        "lat": 21.175165,
        "lng": 79.651871,
        "minZoom": null,
        "maxZoom": null
      },
      "bbox": [
        79.634338,
        21.145187,
        79.680016,
        21.197377
      ],
      "villages": [
        {
          "name": "Bhandara (MCI), Tal: Bhandara",
          "lat": 21.19101602918357,
          "lng": 79.65675801868203,
          "displayName": "Bhandara",
          "slug": "bhandara-tal-bhandara",
          "skipPage": false,
          "distanceFromHqKm": 1.8,
          "bearingFromHq": "north"
        },
        {
          "name": "Ganeshpur (CT), Tal: Bhandara",
          "lat": 21.15454994648768,
          "lng": 79.64481545401868,
          "displayName": "Ganeshpur",
          "slug": "ganeshpur-tal-bhandara",
          "skipPage": false,
          "distanceFromHqKm": 2.4,
          "bearingFromHq": "south"
        },
        {
          "name": "Kesalwada/Kesalvada, Tal: Bhandara",
          "lat": 21.190950631913896,
          "lng": 79.64089497608346,
          "displayName": "Kesalwada",
          "slug": "kesalwada-kesalvada-tal-bhandara",
          "skipPage": false,
          "distanceFromHqKm": 2.1,
          "bearingFromHq": "north-west"
        }
      ],
      "sourceLink": "https://dtp.maharashtra.gov.in/home/downloads/dp/?cities=bhandara",
      "price": "50",
      "focal": {
        "lat": 21.19101602918357,
        "lng": 79.65675801868203,
        "source": "village:Bhandara (MCI), Tal: Bhandara",
        "zoom": 13
      },
      "fullMapUrl": "https://dpplans.com/maps.html?lat=21.19101602918357&lng=79.65675801868203&zoom=13",
      "embedUrl": "https://dpplans.com/maps.html?lat=21.19101602918357&lng=79.65675801868203&zoom=13&embed=1",
      "nearby": [
        {
          "slug": "nagpur-metropolitan-region-dp-plan",
          "displayName": "Nagpur Metropolitan Region",
          "shortName": "Nagpur Metropolitan Region",
          "distanceKm": 52.7
        },
        {
          "slug": "chandrapur-region-dp-plan",
          "displayName": "Chandrapur Region",
          "shortName": "Chandrapur Region",
          "distanceKm": 140.3
        },
        {
          "slug": "amravati-dp-plan",
          "displayName": "Amravati",
          "shortName": "Amravati",
          "distanceKm": 232.4
        },
        {
          "slug": "akola-dp-plan",
          "displayName": "Akola",
          "shortName": "Akola",
          "distanceKm": 271.3
        },
        {
          "slug": "washim-region-dp-plan",
          "displayName": "Washim Region",
          "shortName": "Washim Region",
          "distanceKm": 288.3
        }
      ],
      "faqs": [
        {
          "q": "Where can I view the Bhandara Region Development Plan online?",
          "a": "You can view the Bhandara Region DP map on Map Magician’s interactive viewer. The plan is overlaid on satellite imagery so you can identify zones, reservations and road lines for any plot in Bhandara Region, Maharashtra."
        },
        {
          "q": "Is the Bhandara Region DP map official?",
          "a": "The published Development Plan referenced here mirrors the source documents from Maharashtra Town Planning. The official PDFs are linked from the source: https://dtp.maharashtra.gov.in/home/downloads/dp/?cities=bhandara"
        },
        {
          "q": "Can I see specific villages or sectors inside Bhandara Region?",
          "a": "Yes — 3 sub-locations are indexed inside Bhandara Region, including Bhandara (MCI), Tal: Bhandara, Ganeshpur (CT), Tal: Bhandara, Kesalwada/Kesalvada, Tal: Bhandara and more. Each can be opened directly from the search bar on the map."
        },
        {
          "q": "Is access free?",
          "a": "Browsing the Bhandara Region region is free up to zoom level 14. High-detail (zoom 15–18) imagery is unlocked with a 7-day access pass."
        },
        {
          "q": "What devices does the Bhandara Region DP viewer work on?",
          "a": "The viewer runs in any modern browser — desktop, tablet, or mobile. There is also a native Android app for offline access."
        }
      ],
      "features": [
        "Interactive zoom and pan over the entire Bhandara Region Development Plan area",
        "Satellite + DP overlay so plot boundaries align with on-ground features",
        "Search by survey number, village or landmark inside Bhandara Region",
        "Measure distances and areas directly on the Bhandara Region map",
        "Mobile-friendly — view Bhandara Region DP zones on the go",
        "3 indexed sub-locations inside Bhandara Region"
      ]
    },
    {
      "slug": "buldhana-region-dp-plan",
      "productPurchaseID": "buldhana",
      "menuKey": "BuldhanaMaharashtra",
      "displayName": "Buldhana Region",
      "rawDistrictName": "Buldhana Region",
      "shortName": "Buldhana Region",
      "state": "Maharashtra",
      "iconUrl": "https://tiles.mapmagician.in/dpplans/0imagesGIS/buldhana_icon.png",
      "stateIconUrl": "https://tiles.mapmagician.in/dpplans/0imagesGIS/maharashtra.png",
      "centroid": {
        "lat": 20.540923,
        "lng": 76.184384,
        "minZoom": null,
        "maxZoom": null
      },
      "bbox": [
        76.163341,
        20.519302,
        76.206476,
        20.555557
      ],
      "villages": [
        {
          "name": "Buldhana",
          "lat": 20.535862476648475,
          "lng": 76.17908100052459,
          "displayName": "Buldhana",
          "slug": "buldhana",
          "skipPage": false,
          "distanceFromHqKm": 0.8,
          "bearingFromHq": "south-west"
        }
      ],
      "sourceLink": "https://dtp.maharashtra.gov.in/home/downloads/dp/?cities=buldhana",
      "price": "50",
      "focal": {
        "lat": 20.535862476648475,
        "lng": 76.17908100052459,
        "source": "village:Buldhana",
        "zoom": 13
      },
      "fullMapUrl": "https://dpplans.com/maps.html?lat=20.535862476648475&lng=76.17908100052459&zoom=13",
      "embedUrl": "https://dpplans.com/maps.html?lat=20.535862476648475&lng=76.17908100052459&zoom=13&embed=1",
      "nearby": [
        {
          "slug": "jalna-region-dp-plan",
          "displayName": "Jalna Region",
          "shortName": "Jalna Region",
          "distanceKm": 81
        },
        {
          "slug": "jalgaon-region-dp-plan",
          "displayName": "Jalgaon Region",
          "shortName": "Jalgaon Region",
          "distanceKm": 82
        },
        {
          "slug": "akola-dp-plan",
          "displayName": "Akola",
          "shortName": "Akola",
          "distanceKm": 102.2
        },
        {
          "slug": "washim-region-dp-plan",
          "displayName": "Washim Region",
          "shortName": "Washim Region",
          "distanceKm": 110.3
        },
        {
          "slug": "aurangabad-dp-plan",
          "displayName": "Aurangabad/Chatrapati Sambhaji Nagar",
          "shortName": "Aurangabad",
          "distanceKm": 118
        }
      ],
      "faqs": [
        {
          "q": "Where can I view the Buldhana Region Development Plan online?",
          "a": "You can view the Buldhana Region DP map on Map Magician’s interactive viewer. The plan is overlaid on satellite imagery so you can identify zones, reservations and road lines for any plot in Buldhana Region, Maharashtra."
        },
        {
          "q": "Is the Buldhana Region DP map official?",
          "a": "The published Development Plan referenced here mirrors the source documents from Maharashtra Town Planning. The official PDFs are linked from the source: https://dtp.maharashtra.gov.in/home/downloads/dp/?cities=buldhana"
        },
        {
          "q": "Can I see specific villages or sectors inside Buldhana Region?",
          "a": "Yes — 1 sub-locations are indexed inside Buldhana Region, including Buldhana and more. Each can be opened directly from the search bar on the map."
        },
        {
          "q": "Is access free?",
          "a": "Browsing the Buldhana Region region is free up to zoom level 14. High-detail (zoom 15–18) imagery is unlocked with a 7-day access pass."
        },
        {
          "q": "What devices does the Buldhana Region DP viewer work on?",
          "a": "The viewer runs in any modern browser — desktop, tablet, or mobile. There is also a native Android app for offline access."
        }
      ],
      "features": [
        "Interactive zoom and pan over the entire Buldhana Region Development Plan area",
        "Satellite + DP overlay so plot boundaries align with on-ground features",
        "Search by survey number, village or landmark inside Buldhana Region",
        "Measure distances and areas directly on the Buldhana Region map",
        "Mobile-friendly — view Buldhana Region DP zones on the go",
        "1 indexed sub-locations inside Buldhana Region"
      ]
    },
    {
      "slug": "chandrapur-region-dp-plan",
      "productPurchaseID": "chandrapur",
      "menuKey": "ChandrapurMaharashtra",
      "displayName": "Chandrapur Region",
      "rawDistrictName": "Chandrapur Region",
      "shortName": "Chandrapur Region",
      "state": "Maharashtra",
      "iconUrl": "https://tiles.mapmagician.in/dpplans/0imagesGIS/chandrapur_icon.png",
      "stateIconUrl": "https://tiles.mapmagician.in/dpplans/0imagesGIS/maharashtra.png",
      "centroid": {
        "lat": 19.956842,
        "lng": 79.301633,
        "minZoom": null,
        "maxZoom": null
      },
      "bbox": [
        79.266065,
        19.898433,
        79.34669,
        19.999996
      ],
      "villages": [
        {
          "name": "Chandrapur",
          "lat": 19.968831846098436,
          "lng": 79.29562475891375,
          "displayName": "Chandrapur",
          "slug": "chandrapur",
          "skipPage": false,
          "distanceFromHqKm": 1.5,
          "bearingFromHq": "north-west"
        },
        {
          "name": "Bor Rith, Tal: Chandrapur",
          "lat": 19.9364096293719,
          "lng": 79.28116297853101,
          "displayName": "Bor Rith",
          "slug": "bor-rith-tal-chandrapur",
          "skipPage": false,
          "distanceFromHqKm": 3.1,
          "bearingFromHq": "south-west"
        },
        {
          "name": "Chanda khas Raiyyat (Chandrapur (MCI)), Tal: Chandrapur",
          "lat": 19.948676359101352,
          "lng": 79.29156410823465,
          "displayName": "Chanda khas Raiyyat )",
          "slug": "chanda-khas-raiyyat-tal-chandrapur",
          "skipPage": false,
          "distanceFromHqKm": 1.4,
          "bearingFromHq": "south-west"
        },
        {
          "name": "Chandrapur (MCI), Tal: Chandrapur",
          "lat": 19.954730579875324,
          "lng": 79.29957585671887,
          "displayName": "Chandrapur",
          "slug": "chandrapur-tal-chandrapur",
          "skipPage": false,
          "distanceFromHqKm": 0.3,
          "bearingFromHq": "south-west"
        },
        {
          "name": "Deoli Govindpur  tukum (Chandrapur (MCI))/Deoli Gowindpur  tukum (Chandrapur (MCI)), Tal: Chandrapur",
          "lat": 19.97624600124602,
          "lng": 79.29794828969682,
          "displayName": "Deoli Govindpur tukum )",
          "slug": "deoli-govindpur-tukum-deoli-gowindpur-tukum-tal-chandrapur",
          "skipPage": false,
          "distanceFromHqKm": 2.2,
          "bearingFromHq": "north"
        },
        {
          "name": "Dharmashala Tukum, Tal: Ballarpur",
          "lat": 19.903602694491344,
          "lng": 79.3163825558687,
          "displayName": "Dharmashala Tukum",
          "slug": "dharmashala-tukum-tal-ballarpur",
          "skipPage": false,
          "distanceFromHqKm": 6.1,
          "bearingFromHq": "south"
        },
        {
          "name": "Govindpur Rith (Chandrapur (MCI))/Gowindpur Rith (Chandrapur (MCI)), Tal: Chandrapur",
          "lat": 19.961934164076872,
          "lng": 79.2807000584287,
          "displayName": "Govindpur Rith )",
          "slug": "govindpur-rith-gowindpur-rith-tal-chandrapur",
          "skipPage": false,
          "distanceFromHqKm": 2.3,
          "bearingFromHq": "west"
        },
        {
          "name": "Mana (Chandrapur (MCI)), Tal: Chandrapur",
          "lat": 19.91201473973575,
          "lng": 79.30036287085865,
          "displayName": "Mana )",
          "slug": "mana-tal-chandrapur",
          "skipPage": false,
          "distanceFromHqKm": 5,
          "bearingFromHq": "south"
        },
        {
          "name": "Urjanagar, Tal: Chandrapur",
          "lat": 19.99519074081002,
          "lng": 79.3038986546613,
          "displayName": "Urjanagar",
          "slug": "urjanagar-tal-chandrapur",
          "skipPage": false,
          "distanceFromHqKm": 4.3,
          "bearingFromHq": "north"
        },
        {
          "name": "Wadgaon (Chandrapur (MCI))/Vadgaon (Chandrapur (MCI)), Tal: Chandrapur",
          "lat": 19.98572489380308,
          "lng": 79.27799318760778,
          "displayName": "Wadgaon )",
          "slug": "wadgaon-vadgaon-tal-chandrapur",
          "skipPage": false,
          "distanceFromHqKm": 4.1,
          "bearingFromHq": "north-west"
        }
      ],
      "sourceLink": "https://dtp.maharashtra.gov.in/home/downloads/dp/?cities=chandrapur",
      "price": "50",
      "focal": {
        "lat": 19.968831846098436,
        "lng": 79.29562475891375,
        "source": "village:Chandrapur",
        "zoom": 13
      },
      "fullMapUrl": "https://dpplans.com/maps.html?lat=19.968831846098436&lng=79.29562475891375&zoom=13",
      "embedUrl": "https://dpplans.com/maps.html?lat=19.968831846098436&lng=79.29562475891375&zoom=13&embed=1",
      "nearby": [
        {
          "slug": "nagpur-metropolitan-region-dp-plan",
          "displayName": "Nagpur Metropolitan Region",
          "shortName": "Nagpur Metropolitan Region",
          "distanceKm": 135.8
        },
        {
          "slug": "bhandara-region-dp-plan",
          "displayName": "Bhandara Region",
          "shortName": "Bhandara Region",
          "distanceKm": 140.3
        },
        {
          "slug": "nanded-waghala-municipal-corporation-dp-plan",
          "displayName": "Nanded Waghala Municipal Corporation",
          "shortName": "Nanded Waghala Municipal Corporation",
          "distanceKm": 225.7
        },
        {
          "slug": "washim-region-dp-plan",
          "displayName": "Washim Region",
          "shortName": "Washim Region",
          "distanceKm": 227.3
        },
        {
          "slug": "hingoli-dp-plan",
          "displayName": "Hingoli",
          "shortName": "Hingoli",
          "distanceKm": 227.6
        }
      ],
      "faqs": [
        {
          "q": "Where can I view the Chandrapur Region Development Plan online?",
          "a": "You can view the Chandrapur Region DP map on Map Magician’s interactive viewer. The plan is overlaid on satellite imagery so you can identify zones, reservations and road lines for any plot in Chandrapur Region, Maharashtra."
        },
        {
          "q": "Is the Chandrapur Region DP map official?",
          "a": "The published Development Plan referenced here mirrors the source documents from Maharashtra Town Planning. The official PDFs are linked from the source: https://dtp.maharashtra.gov.in/home/downloads/dp/?cities=chandrapur"
        },
        {
          "q": "Can I see specific villages or sectors inside Chandrapur Region?",
          "a": "Yes — 10 sub-locations are indexed inside Chandrapur Region, including Chandrapur, Bor Rith, Tal: Chandrapur, Chanda khas Raiyyat (Chandrapur (MCI)), Tal: Chandrapur, Chandrapur (MCI), Tal: Chandrapur and more. Each can be opened directly from the search bar on the map."
        },
        {
          "q": "Is access free?",
          "a": "Browsing the Chandrapur Region region is free up to zoom level 14. High-detail (zoom 15–18) imagery is unlocked with a 7-day access pass."
        },
        {
          "q": "What devices does the Chandrapur Region DP viewer work on?",
          "a": "The viewer runs in any modern browser — desktop, tablet, or mobile. There is also a native Android app for offline access."
        }
      ],
      "features": [
        "Interactive zoom and pan over the entire Chandrapur Region Development Plan area",
        "Satellite + DP overlay so plot boundaries align with on-ground features",
        "Search by survey number, village or landmark inside Chandrapur Region",
        "Measure distances and areas directly on the Chandrapur Region map",
        "Mobile-friendly — view Chandrapur Region DP zones on the go",
        "10 indexed sub-locations inside Chandrapur Region"
      ]
    },
    {
      "slug": "dhule-dp-plan",
      "productPurchaseID": "dhuledistrict",
      "menuKey": "DhuleMaharashtra",
      "displayName": "Dhule",
      "rawDistrictName": "Dhule",
      "shortName": "Dhule",
      "state": "Maharashtra",
      "iconUrl": "https://tiles.mapmagician.in/dpplans/0imagesGIS/dhule.png",
      "stateIconUrl": "https://tiles.mapmagician.in/dpplans/0imagesGIS/maharashtra.png",
      "centroid": {
        "lat": 20.900495,
        "lng": 74.778231,
        "minZoom": null,
        "maxZoom": null
      },
      "bbox": [
        74.744432,
        20.857097,
        74.817255,
        20.942584
      ],
      "villages": [
        {
          "name": "Dhule",
          "lat": 20.904325,
          "lng": 74.768495,
          "displayName": "Dhule",
          "slug": "dhule",
          "skipPage": true,
          "distanceFromHqKm": 1.1,
          "bearingFromHq": "north-west"
        },
        {
          "name": "Devpura/Dewpura, Tal: Dhule",
          "lat": 20.925153721638445,
          "lng": 74.77949626969779,
          "displayName": "Devpura",
          "slug": "devpura-dewpura-tal-dhule",
          "skipPage": false,
          "distanceFromHqKm": 2.7,
          "bearingFromHq": "north"
        },
        {
          "name": "Dhule, Tal: Dhule",
          "lat": 20.891712176565164,
          "lng": 74.7819410364169,
          "displayName": "Dhule",
          "slug": "dhule-tal-dhule",
          "skipPage": false,
          "distanceFromHqKm": 1,
          "bearingFromHq": "south"
        },
        {
          "name": "Mahindale, Tal: Dhule",
          "lat": 20.894861399400444,
          "lng": 74.7486328396589,
          "displayName": "Mahindale",
          "slug": "mahindale-tal-dhule",
          "skipPage": false,
          "distanceFromHqKm": 3.1,
          "bearingFromHq": "west"
        },
        {
          "name": "Morane Pr.Laling, Tal: Dhule",
          "lat": 20.86711621889623,
          "lng": 74.78258847090318,
          "displayName": "Morane Pr.Laling",
          "slug": "morane-pr-laling-tal-dhule",
          "skipPage": false,
          "distanceFromHqKm": 3.7,
          "bearingFromHq": "south"
        },
        {
          "name": "Walwadi/Valvadi, Tal: Dhule",
          "lat": 20.926865326519646,
          "lng": 74.76027206501442,
          "displayName": "Walwadi",
          "slug": "walwadi-valvadi-tal-dhule",
          "skipPage": false,
          "distanceFromHqKm": 3.5,
          "bearingFromHq": "north-west"
        }
      ],
      "sourceLink": "https://dtp.maharashtra.gov.in/home/downloads/dp/?cities=dhule",
      "price": "50",
      "focal": {
        "lat": 20.904325,
        "lng": 74.768495,
        "source": "village:Dhule",
        "zoom": 13
      },
      "fullMapUrl": "https://dpplans.com/maps.html?lat=20.904325&lng=74.768495&zoom=13",
      "embedUrl": "https://dpplans.com/maps.html?lat=20.904325&lng=74.768495&zoom=13&embed=1",
      "nearby": [
        {
          "slug": "nandurbar-region-dp-plan",
          "displayName": "Nandurbar Region",
          "shortName": "Nandurbar Region",
          "distanceKm": 75.4
        },