{
  "generatedAt": "2026-05-20T07:24:18.275Z",
  "count": 40,
  "regions": [
    {
      "slug": "hyderabad-hmda-periphery-dp-plan",
      "productPurchaseID": "hyderabad_new",
      "menuKey": "Hyderabad",
      "displayName": "Hyderabad HMDA Periphery",
      "rawDistrictName": "",
      "shortName": "Hyderabad HMDA Periphery",
      "state": "Hyderabad HMDA Periphery (Draft)",
      "iconUrl": "https://tiles.mapmagician.in/dpplans/0imagesGIS/hydrabad.png",
      "stateIconUrl": "https://tiles.mapmagician.in/dpplans/0imagesGIS/hydrabad.png",
      "centroid": {
        "lat": 17.45362,
        "lng": 78.478257,
        "minZoom": 8,
        "maxZoom": 18
      },
      "bbox": [
        78.004312,
        16.967978,
        79.049735,
        17.897048
      ],
      "villages": [
        {
          "name": "Bibinagar",
          "lat": 17.4578,
          "lng": 78.79541
        },
        {
          "name": "Bommalaramaram",
          "lat": 17.57464,
          "lng": 78.7469
        },
        {
          "name": "Buvanagiri",
          "lat": 17.49856,
          "lng": 78.91002
        },
        {
          "name": "Chevella",
          "lat": 17.31894,
          "lng": 78.11464
        },
        {
          "name": "Choutuppal",
          "lat": 17.26335,
          "lng": 78.87066
        },
        {
          "name": "Faruqnagar",
          "lat": 17.08686,
          "lng": 78.20235
        },
        {
          "name": "Ghatkesar",
          "lat": 17.43692,
          "lng": 78.70059
        },
        {
          "name": "Hatnura",
          "lat": 17.68506,
          "lng": 78.20186
        },
        {
          "name": "Hayathnagar",
          "lat": 17.30812,
          "lng": 78.685
        },
        {
          "name": "Ibrahimpatnam Manchal",
          "lat": 17.19131,
          "lng": 78.66027
        },
        {
          "name": "Jinnawaram FPLU",
          "lat": 17.65156,
          "lng": 78.34035
        },
        {
          "name": "Kandukur",
          "lat": 17.06247,
          "lng": 78.48674
        },
        {
          "name": "Kisara",
          "lat": 17.53027,
          "lng": 78.6659
        },
        {
          "name": "Kothuru",
          "lat": 17.12842,
          "lng": 78.26582
        },
        {
          "name": "Maheshwaram",
          "lat": 17.13778,
          "lng": 78.39352
        },
        {
          "name": "Medchal Qutubullapur",
          "lat": 17.64064,
          "lng": 78.46674
        },
        {
          "name": "Moinabad Rajendranagar",
          "lat": 17.3248,
          "lng": 78.28818
        },
        {
          "name": "Mulug",
          "lat": 17.71631,
          "lng": 78.63889
        },
        {
          "name": "Narsapur",
          "lat": 17.75063,
          "lng": 78.2638
        },
        {
          "name": "Patancheruvu",
          "lat": 17.54991,
          "lng": 78.2163
        },
        {
          "name": "Pochampalli",
          "lat": 17.35717,
          "lng": 78.81223
        },
        {
          "name": "Sangareddy",
          "lat": 17.586484,
          "lng": 78.081933
        },
        {
          "name": "Shahbad",
          "lat": 17.17981,
          "lng": 78.13107
        },
        {
          "name": "Shahmirpet",
          "lat": 17.62423,
          "lng": 78.62416
        },
        {
          "name": "Shamshabad",
          "lat": 17.23315,
          "lng": 78.3362
        },
        {
          "name": "Shankarpalli Ramchandrapuram",
          "lat": 17.43141,
          "lng": 78.16524
        },
        {
          "name": "Shivampet",
          "lat": 17.79715,
          "lng": 78.38087
        },
        {
          "name": "Tupran",
          "lat": 17.80339,
          "lng": 78.47794
        },
        {
          "name": "Wargal",
          "lat": 17.79116,
          "lng": 78.59261
        },
        {
          "name": "Yacharam",
          "lat": 17.07615,
          "lng": 78.67112
        }
      ],
      "sourceLink": "https://www.hmda.gov.in/masterplan-huda/",
      "price": "50",
      "focal": {
        "lat": 17.4578,
        "lng": 78.79541,
        "source": "village:Bibinagar",
        "zoom": 13
      },
      "fullMapUrl": "https://dpplans.com/maps.html?lat=17.4578&lng=78.79541&zoom=13",
      "embedUrl": "https://dpplans.com/maps.html?lat=17.4578&lng=78.79541&zoom=13&embed=1",
      "nearby": [],
      "faqs": [
        {
          "q": "Where can I view the Hyderabad HMDA Periphery Development Plan online?",
          "a": "You can view the Hyderabad HMDA Periphery DP map on Map Magician’s interactive viewer. The plan is overlaid on satellite imagery so you can identify zones, reservations and road lines for any plot in Hyderabad HMDA Periphery, Hyderabad HMDA Periphery (Draft)."
        },
        {
          "q": "Is the Hyderabad HMDA Periphery DP map official?",
          "a": "The published Development Plan referenced here mirrors the source documents from Hyderabad HMDA Periphery (Draft) Town Planning. The official PDFs are linked from the source: https://www.hmda.gov.in/masterplan-huda/"
        },
        {
          "q": "Can I see specific villages or sectors inside Hyderabad HMDA Periphery?",
          "a": "Yes — 30 sub-locations are indexed inside Hyderabad HMDA Periphery, including Bibinagar, Bommalaramaram, Buvanagiri, Chevella and more. Each can be opened directly from the search bar on the map."
        },
        {
          "q": "Is access free?",
          "a": "Browsing the Hyderabad HMDA Periphery region is free up to zoom level 14. High-detail (zoom 15–18) imagery is unlocked with a 7-day access pass."
        },
        {
          "q": "What devices does the Hyderabad HMDA Periphery DP viewer work on?",
          "a": "The viewer runs in any modern browser — desktop, tablet, or mobile. There is also a native Android app for offline access."
        }
      ],
      "features": [
        "Interactive zoom and pan over the entire Hyderabad HMDA Periphery Development Plan area",
        "Satellite + DP overlay so plot boundaries align with on-ground features",
        "Search by survey number, village or landmark inside Hyderabad HMDA Periphery",
        "Measure distances and areas directly on the Hyderabad HMDA Periphery map",
        "Mobile-friendly — view Hyderabad HMDA Periphery DP zones on the go",
        "30 indexed sub-locations inside Hyderabad HMDA Periphery"
      ]
    },
    {
      "slug": "bengaluru-dp-plan",
      "productPurchaseID": "bengaluru",
      "menuKey": "Bengaluru",
      "displayName": "Bengaluru",
      "rawDistrictName": "Bengaluru (Draft)",
      "shortName": "Bengaluru",
      "state": "Karnataka",
      "iconUrl": "https://tiles.mapmagician.in/dpplans/0imagesGIS/icon_banglore.png",
      "stateIconUrl": "https://tiles.mapmagician.in/dpplans/0imagesGIS/karnataka.png",
      "centroid": {
        "lat": 12.970689,
        "lng": 77.593131,
        "minZoom": 8,
        "maxZoom": 18
      },
      "bbox": [
        77.39264,
        12.760077,
        77.784508,
        13.183823
      ],
      "villages": [
        {
          "name": "Bengaluru City",
          "lat": 12.98919,
          "lng": 77.57963
        }
      ],
      "sourceLink": "http://www.dtcp.gov.in/en/approved-mp",
      "price": "50",
      "focal": {
        "lat": 12.98919,
        "lng": 77.57963,
        "source": "village:Bengaluru City",
        "zoom": 13
      },
      "fullMapUrl": "https://dpplans.com/maps.html?lat=12.98919&lng=77.57963&zoom=13",
      "embedUrl": "https://dpplans.com/maps.html?lat=12.98919&lng=77.57963&zoom=13&embed=1",
      "nearby": [],
      "faqs": [
        {
          "q": "Where can I view the Bengaluru Development Plan online?",
          "a": "You can view the Bengaluru DP map on Map Magician’s interactive viewer. The plan is overlaid on satellite imagery so you can identify zones, reservations and road lines for any plot in Bengaluru, Karnataka."
        },
        {
          "q": "Is the Bengaluru DP map official?",
          "a": "The published Development Plan referenced here mirrors the source documents from Karnataka Town Planning. The official PDFs are linked from the source: http://www.dtcp.gov.in/en/approved-mp"
        },
        {
          "q": "Can I see specific villages or sectors inside Bengaluru?",
          "a": "Yes — 1 sub-locations are indexed inside Bengaluru, including Bengaluru City and more. Each can be opened directly from the search bar on the map."
        },
        {
          "q": "Is access free?",
          "a": "Browsing the Bengaluru region is free up to zoom level 14. High-detail (zoom 15–18) imagery is unlocked with a 7-day access pass. Note: this plan is currently a draft publication."
        },
        {
          "q": "What devices does the Bengaluru DP viewer work on?",
          "a": "The viewer runs in any modern browser — desktop, tablet, or mobile. There is also a native Android app for offline access."
        }
      ],
      "features": [
        "Interactive zoom and pan over the entire Bengaluru Development Plan area",
        "Satellite + DP overlay so plot boundaries align with on-ground features",
        "Search by survey number, village or landmark inside Bengaluru",
        "Measure distances and areas directly on the Bengaluru map",
        "Mobile-friendly — view Bengaluru DP zones on the go",
        "1 indexed sub-locations inside Bengaluru"
      ]
    },
    {
      "slug": "vijayapura-dp-plan",
      "productPurchaseID": "vijayapura",
      "menuKey": "Vijayapura",
      "displayName": "Vijayapura",
      "rawDistrictName": "Vijayapura",
      "shortName": "Vijayapura",
      "state": "Karnataka",
      "iconUrl": "https://tiles.mapmagician.in/dpplans/0imagesGIS/vijayapura_icon.png",
      "stateIconUrl": "https://tiles.mapmagician.in/dpplans/0imagesGIS/karnataka.png",
      "centroid": null,
      "bbox": null,
      "villages": [
        {
          "name": "Vijayapura City",
          "lat": 16.826847176415466,
          "lng": 75.7080054842231
        }
      ],
      "sourceLink": "http://www.vijayapura.uda.gov.in/en/master-plan",
      "price": "89",
      "focal": {
        "lat": 16.826847176415466,
        "lng": 75.7080054842231,
        "source": "village:Vijayapura City",
        "zoom": 13
      },
      "fullMapUrl": "https://dpplans.com/maps.html?lat=16.826847176415466&lng=75.7080054842231&zoom=13",
      "embedUrl": "https://dpplans.com/maps.html?lat=16.826847176415466&lng=75.7080054842231&zoom=13&embed=1",
      "nearby": [],
      "faqs": [
        {
          "q": "Where can I view the Vijayapura Development Plan online?",
          "a": "You can view the Vijayapura DP map on Map Magician’s interactive viewer. The plan is overlaid on satellite imagery so you can identify zones, reservations and road lines for any plot in Vijayapura, Karnataka."
        },
        {
          "q": "Is the Vijayapura DP map official?",
          "a": "The published Development Plan referenced here mirrors the source documents from Karnataka Town Planning. The official PDFs are linked from the source: http://www.vijayapura.uda.gov.in/en/master-plan"
        },
        {
          "q": "Can I see specific villages or sectors inside Vijayapura?",
          "a": "Yes — 1 sub-locations are indexed inside Vijayapura, including Vijayapura City and more. Each can be opened directly from the search bar on the map."
        },
        {
          "q": "Is access free?",
          "a": "Browsing the Vijayapura region is free up to zoom level 14. High-detail (zoom 15–18) imagery is unlocked with a 7-day access pass."
        },
        {
          "q": "What devices does the Vijayapura DP viewer work on?",
          "a": "The viewer runs in any modern browser — desktop, tablet, or mobile. There is also a native Android app for offline access."
        }
      ],
      "features": [
        "Interactive zoom and pan over the entire Vijayapura Development Plan area",
        "Satellite + DP overlay so plot boundaries align with on-ground features",
        "Search by survey number, village or landmark inside Vijayapura",
        "Measure distances and areas directly on the Vijayapura map",
        "Mobile-friendly — view Vijayapura DP zones on the go",
        "1 indexed sub-locations inside Vijayapura"
      ]
    },
    {
      "slug": "ahmednagar-dp-plan",
      "productPurchaseID": "ahmednagardp",
      "menuKey": "AhmednagarMaharashtra",
      "displayName": "Ahmednagar / Ahilyanagar",
      "rawDistrictName": "Ahmednagar / Ahilyanagar (Part) (new maps)",
      "shortName": "Ahmednagar",
      "state": "Maharashtra",
      "iconUrl": "https://tiles.mapmagician.in/dpplans/0imagesGIS/icon_ahmednagar_it_part.png",
      "stateIconUrl": "https://tiles.mapmagician.in/dpplans/0imagesGIS/maharashtra.png",
      "centroid": {
        "lat": 19.348703,
        "lng": 74.658668,
        "minZoom": 11,
        "maxZoom": 20
      },
      "bbox": [
        74.19788,
        19.020265,
        75.212373,
        19.77618
      ],
      "villages": [
        {
          "name": "Ahmednagar City (part)",
          "lat": 19.10479423207404,
          "lng": 74.7409545782568
        },
        {
          "name": "Ahmednagar I.T. Park",
          "lat": 19.1666801,
          "lng": 74.6949405
        },
        {
          "name": "Shirdi",
          "lat": 19.766458538078524,
          "lng": 74.47953669361726
        },
        {
          "name": "Sangamner",
          "lat": 19.574830310473807,
          "lng": 74.20663809759354
        },
        {
          "name": "Pathardi",
          "lat": 19.172813490548062,
          "lng": 75.17333495498171
        },
        {
          "name": "Bhistbag, Tal: Nagar",
          "lat": 19.136639227232486,
          "lng": 74.73328602081035
        },
        {
          "name": "Bolhegaon, Tal: Nagar",
          "lat": 19.12288697729397,
          "lng": 74.70668481193141
        },
        {
          "name": "Burudgaon, Tal: Nagar",
          "lat": 19.043963949530948,
          "lng": 74.74164781796595
        },
        {
          "name": "Chahurana Bk., Tal: Nagar",
          "lat": 19.110046730151776,
          "lng": 74.72710062297473
        },
        {
          "name": "Chahurana Kh, Tal: Nagar",
          "lat": 19.08069579247425,
          "lng": 74.72947071125675
        },
        {
          "name": "Darewadi/Darevadi, Tal: Nagar",
          "lat": 19.079294727792064,
          "lng": 74.75214423636648
        },
        {
          "name": "handalwadi/handalvadi, Tal: Pathardi",
          "lat": 19.144742793942893,
          "lng": 75.19110749491557
        },
        {
          "name": "Kedgaoninami, Tal: Nagar",
          "lat": 19.05973467422538,
          "lng": 74.70105126944867
        },
        {
          "name": "Maliwada/Malivada, Tal: Nagar",
          "lat": 19.078988446366157,
          "lng": 74.74475292873568
        },
        {
          "name": "Morchudnagar, Tal: Nagar",
          "lat": 19.093262461032726,
          "lng": 74.73095171235357
        },
        {
          "name": "Nagapur, Tal: Nagar",
          "lat": 19.150449931779622,
          "lng": 74.71096146040718
        },
        {
          "name": "NAGAR (Urban), Tal: Nagar",
          "lat": 19.098195093834047,
          "lng": 74.75691572703994
        },
        {
          "name": "Nalegaon, Tal: Nagar",
          "lat": 19.099201087617313,
          "lng": 74.71884918649954
        },
        {
          "name": "Pathardi, Tal: Pathardi",
          "lat": 19.173023484358982,
          "lng": 75.17682541130355
        },
        {
          "name": "Sangamner, Tal: Sangammer",
          "lat": 19.57112002798239,
          "lng": 74.20808013315836
        },
        {
          "name": "Sawedi/Savedi, Tal: Nagar",
          "lat": 19.12352259877029,
          "lng": 74.73166915467885
        },
        {
          "name": "Shirdi Korhale, Tal: Rahata",
          "lat": 19.75935292256426,
          "lng": 74.48810603351171
        },
        {
          "name": "Tampurwadi/Tampurvadi, Tal: Pathardi",
          "lat": 19.171563877112103,
          "lng": 75.20233540726586
        }
      ],
      "sourceLink": "https://dtp.maharashtra.gov.in/home/downloads/dp/?cities=ahmednagar",
      "price": "50",
      "focal": {
        "lat": 19.10479423207404,
        "lng": 74.7409545782568,
        "source": "village:Ahmednagar City (part)",
        "zoom": 13
      },
      "fullMapUrl": "https://dpplans.com/maps.html?lat=19.10479423207404&lng=74.7409545782568&zoom=13",
      "embedUrl": "https://dpplans.com/maps.html?lat=19.10479423207404&lng=74.7409545782568&zoom=13&embed=1",
      "nearby": [
        {
          "slug": "aurangabad-dp-plan",
          "displayName": "Aurangabad/Chatrapati Sambhaji Nagar",
          "shortName": "Aurangabad",
          "distanceKm": 89.6
        },
        {
          "slug": "pmrda-development-plan",
          "displayName": "PMRDA",
          "shortName": "PMRDA",
          "distanceKm": 115.4
        },
        {
          "slug": "nashik-dp-plan",
          "displayName": "Nashik",
          "shortName": "Nashik",
          "distanceKm": 116.4
        },
        {
          "slug": "pune-dp-plan",
          "displayName": "Pune",
          "shortName": "Pune",
          "distanceKm": 118.8
        },
        {
          "slug": "jalna-region-dp-plan",
          "displayName": "Jalna Region",
          "shortName": "Jalna Region",
          "distanceKm": 147.3
        }
      ],
      "faqs": [
        {
          "q": "Where can I view the Ahmednagar Development Plan online?",
          "a": "You can view the Ahmednagar / Ahilyanagar DP map on Map Magician’s interactive viewer. The plan is overlaid on satellite imagery so you can identify zones, reservations and road lines for any plot in Ahmednagar, Maharashtra."
        },
        {
          "q": "Is the Ahmednagar DP map official?",
          "a": "The published Development Plan referenced here mirrors the source documents from Maharashtra Town Planning. The official PDFs are linked from the source: https://dtp.maharashtra.gov.in/home/downloads/dp/?cities=ahmednagar"
        },
        {
          "q": "Can I see specific villages or sectors inside Ahmednagar?",
          "a": "Yes — 23 sub-locations are indexed inside Ahmednagar, including Ahmednagar City (part), Ahmednagar I.T. Park, Shirdi, Sangamner and more. Each can be opened directly from the search bar on the map."
        },
        {
          "q": "Is access free?",
          "a": "Browsing the Ahmednagar region is free up to zoom level 14. High-detail (zoom 15–20) imagery is unlocked with a 7-day access pass."
        },
        {
          "q": "What devices does the Ahmednagar DP viewer work on?",
          "a": "The viewer runs in any modern browser — desktop, tablet, or mobile. There is also a native Android app for offline access."
        }
      ],
      "features": [
        "Interactive zoom and pan over the entire Ahmednagar Development Plan area",
        "Satellite + DP overlay so plot boundaries align with on-ground features",
        "Search by survey number, village or landmark inside Ahmednagar",
        "Measure distances and areas directly on the Ahmednagar map",
        "Mobile-friendly — view Ahmednagar DP zones on the go",
        "23 indexed sub-locations inside Ahmednagar"
      ]
    },
    {
      "slug": "akola-dp-plan",
      "productPurchaseID": "akola",
      "menuKey": "AkolaMaharashtra",
      "displayName": "Akola",
      "rawDistrictName": "Akola",
      "shortName": "Akola",
      "state": "Maharashtra",
      "iconUrl": "https://tiles.mapmagician.in/dpplans/0imagesGIS/akola_icon.png",
      "stateIconUrl": "https://tiles.mapmagician.in/dpplans/0imagesGIS/maharashtra.png",
      "centroid": {
        "lat": 20.985922,
        "lng": 77.044951,
        "minZoom": null,
        "maxZoom": null
      },
      "bbox": [
        76.926278,
        20.643088,
        77.079489,
        21.117797
      ],
      "villages": [
        {
          "name": "Akola",
          "lat": 20.706103583409888,
          "lng": 77.00715565439758
        },
        {
          "name": "Akot",
          "lat": 21.096950368939506,
          "lng": 77.0553467893865
        },
        {
          "name": "Akkalkot, Tal: Akola",
          "lat": 20.72397302592599,
          "lng": 76.96697958726554
        },
        {
          "name": "Akola (Rural), Tal: Akola",
          "lat": 20.71813591050999,
          "lng": 76.98141706465621
        },
        {
          "name": "Akoli Bk., Tal: Akola",
          "lat": 20.69109629191649,
          "lng": 76.99736273551383
        },
        {
          "name": "Akoli Kh., Tal: Akola",
          "lat": 20.68236763506199,
          "lng": 76.98520015688246
        },
        {
          "name": "Dabki, Tal: Akola",
          "lat": 20.716418044255725,
          "lng": 76.93968146015011
        },
        {
          "name": "Gudadhi, Tal: Akola",
          "lat": 20.719322365862485,
          "lng": 77.04720849112444
        },
        {
          "name": "Hingna Mhaispur, Tal: Akola",
          "lat": 20.66930905587452,
          "lng": 76.98584546996922
        },
        {
          "name": "Kanadi, Tal: Akola",
          "lat": 20.677234584624753,
          "lng": 77.0437836322167
        },
        {
          "name": "Kasbe Akot, Tal: Akot",
          "lat": 21.09115457560098,
          "lng": 77.06440844999122
        },
        {
          "name": "Kaulkhed, Tal: Akola",
          "lat": 20.67856946956249,
          "lng": 77.00784849810263
        },
        {
          "name": "Kemlapur, Tal: Akot",
          "lat": 21.0926262614578,
          "lng": 77.04893474726231
        },
        {
          "name": "Khadki Bk, Tal: Akola",
          "lat": 20.667689561309412,
          "lng": 77.02176672992873
        },
        {
          "name": "Kharab Bk, Tal: Akola",
          "lat": 20.74691020658025,
          "lng": 77.02015719786188
        },
        {
          "name": "Malkapur, Tal: Akola",
          "lat": 20.70264640668465,
          "lng": 77.036508323679
        },
        {
          "name": "Nababpur, Tal: Akola",
          "lat": 20.707116114802286,
          "lng": 76.98520134197015
        },
        {
          "name": "Naigaon, Tal: Akola",
          "lat": 20.730437311581213,
          "lng": 76.99533857651745
        },
        {
          "name": "Nizampur, Tal: Akola",
          "lat": 20.696262649014873,
          "lng": 76.98040527654177
        },
        {
          "name": "Shahanwajpur/Shahanvajpur, Tal: Akola",
          "lat": 20.721178003143795,
          "lng": 76.97557003446651
        },
        {
          "name": "Shiloda, Tal: Akola",
          "lat": 20.74604867801736,
          "lng": 76.99646848368977
        },
        {
          "name": "Shivani/Shiwani, Tal: Akola",
          "lat": 20.70382420624005,
          "lng": 77.06702439628829
        },
        {
          "name": "Shivapur/Shiwapur, Tal: Akola",
          "lat": 20.65476605104028,
          "lng": 77.04744773398298
        },
        {
          "name": "Shivar/Shiwar, Tal: Akola",
          "lat": 20.70822351021617,
          "lng": 77.06155381264207
        },
        {
          "name": "Somthana, Tal: Akola",
          "lat": 20.66156965251511,
          "lng": 76.99382962726474
        },
        {
          "name": "Sukapur, Tal: Akola",
          "lat": 20.716115414000086,
          "lng": 76.98161162479799
        },
        {
          "name": "Tajnapur, Tal: Akola",
          "lat": 20.718016122013363,
          "lng": 76.99941229523648
        },
        {
          "name": "Tapalabad, Tal: Akola",
          "lat": 20.712672602696845,
          "lng": 76.97782236997939
        },
        {
          "name": "Umari, Tal: Akola",
          "lat": 20.71910986305969,
          "lng": 77.03033335998352
        },
        {
          "name": "Umari Pr Akola, Tal: Akola",
          "lat": 20.72561654096413,
          "lng": 77.01460674985432
        },
        {
          "name": "Umerkhed, Tal: Akola",
          "lat": 20.71790117344647,
          "lng": 77.01840371946483
        },
        {
          "name": "Wakapur/Vakapur, Tal: Akola",
          "lat": 20.732242560406444,
          "lng": 76.98135878090584
        }
      ],
      "sourceLink": "dtp.maharashtra.gov.in/home/downloads/dp/?cities=akola",
      "price": "50",
      "focal": {
        "lat": 20.706103583409888,
        "lng": 77.00715565439758,
        "source": "village:Akola",
        "zoom": 13
      },
      "fullMapUrl": "https://dpplans.com/maps.html?lat=20.706103583409888&lng=77.00715565439758&zoom=13",
      "embedUrl": "https://dpplans.com/maps.html?lat=20.706103583409888&lng=77.00715565439758&zoom=13&embed=1",
      "nearby": [
        {
          "slug": "amravati-dp-plan",
          "displayName": "Amravati",
          "shortName": "Amravati",
          "distanceKm": 40.6
        },
        {
          "slug": "washim-region-dp-plan",
          "displayName": "Washim Region",
          "shortName": "Washim Region",
          "distanceKm": 99.1
        },
        {
          "slug": "buldhana-region-dp-plan",
          "displayName": "Buldhana Region",
          "shortName": "Buldhana Region",
          "distanceKm": 102.2
        },
        {
          "slug": "hingoli-dp-plan",
          "displayName": "Hingoli",
          "shortName": "Hingoli",
          "distanceKm": 141.6
        },
        {
          "slug": "jalgaon-region-dp-plan",
          "displayName": "Jalgaon Region",
          "shortName": "Jalgaon Region",
          "distanceKm": 153.4
        }
      ],
      "faqs": [
        {
          "q": "Where can I view the Akola Development Plan online?",
          "a": "You can view the Akola DP map on Map Magician’s interactive viewer. The plan is overlaid on satellite imagery so you can identify zones, reservations and road lines for any plot in Akola, Maharashtra."
        },
        {
          "q": "Is the Akola DP map official?",
          "a": "The published Development Plan referenced here mirrors the source documents from Maharashtra Town Planning. The official PDFs are linked from the source: dtp.maharashtra.gov.in/home/downloads/dp/?cities=akola"
        },
        {
          "q": "Can I see specific villages or sectors inside Akola?",
          "a": "Yes — 32 sub-locations are indexed inside Akola, including Akola, Akot, Akkalkot, Tal: Akola, Akola (Rural), Tal: Akola and more. Each can be opened directly from the search bar on the map."
        },
        {
          "q": "Is access free?",
          "a": "Browsing the Akola region is free up to zoom level 14. High-detail (zoom 15–18) imagery is unlocked with a 7-day access pass."
        },
        {
          "q": "What devices does the Akola DP viewer work on?",
          "a": "The viewer runs in any modern browser — desktop, tablet, or mobile. There is also a native Android app for offline access."
        }
      ],
      "features": [
        "Interactive zoom and pan over the entire Akola Development Plan area",
        "Satellite + DP overlay so plot boundaries align with on-ground features",
        "Search by survey number, village or landmark inside Akola",
        "Measure distances and areas directly on the Akola map",
        "Mobile-friendly — view Akola DP zones on the go",
        "32 indexed sub-locations inside Akola"
      ]
    },
    {
      "slug": "amravati-dp-plan",
      "productPurchaseID": "amaravati",
      "menuKey": "AmaravatiMaharashtra",
      "displayName": "Amravati",
      "rawDistrictName": "Amravati (Updated)",
      "shortName": "Amravati",
      "state": "Maharashtra",
      "iconUrl": "https://tiles.mapmagician.in/dpplans/0imagesGIS/amaravati_icon.png",
      "stateIconUrl": "https://tiles.mapmagician.in/dpplans/0imagesGIS/maharashtra.png",
      "centroid": {
        "lat": 21.110501,
        "lng": 77.412536,
        "minZoom": null,
        "maxZoom": null
      },
      "bbox": [
        77.288846,
        20.837099,
        77.829327,
        21.177212
      ],
      "villages": [
        {
          "name": "Amravati",
          "lat": 20.935204045449645,
          "lng": 77.7522308649469
        },
        {
          "name": "Anjangaon Surji",
          "lat": 21.166780432091986,
          "lng": 77.30785991404251
        },
        {
          "name": "Aiwajpur/Aivajpur, Tal: Anjangaon-Surji",
          "lat": 21.17325799735869,
          "lng": 77.3245918521479
        },
        {
          "name": "Ajitpur, Tal: Anjangaon-Surji",
          "lat": 21.17376134885349,
          "lng": 77.30079048451597
        },
        {
          "name": "Akoli, Tal: Amaravati",
          "lat": 20.898314100294282,
          "lng": 77.72944938313366
        },
        {
          "name": "Benod, Tal: Amaravati",
          "lat": 20.908715533139365,
          "lng": 77.78083398441898
        },
        {
          "name": "Deogiri, Tal: Amaravati",
          "lat": 20.885345732096223,
          "lng": 77.77717211088218
        },
        {
          "name": "Gambhirpur, Tal: Amaravati",
          "lat": 20.94272201165622,
          "lng": 77.73117641298005
        },
        {
          "name": "Jewad/Jevad, Tal: Amaravati",
          "lat": 20.89932299899325,
          "lng": 77.76631350625964
        },
        {
          "name": "Kasba Badnera, Tal: Amaravati",
          "lat": 20.8649631827193,
          "lng": 77.73314166863226
        },
        {
          "name": "Khel Babuji, Tal: Anjangaon-Surji",
          "lat": 21.179713519439485,
          "lng": 77.3119993433056
        },
        {
          "name": "Khel Gangaji, Tal: Anjangaon-Surji",
          "lat": 21.162357400216294,
          "lng": 77.30673642943019
        },
        {
          "name": "Khel Hadole, Tal: Anjangaon-Surji",
          "lat": 21.16387465556002,
          "lng": 77.32229495386287
        },
        {
          "name": "Khel Hagone, Tal: Anjangaon-Surji",
          "lat": 21.162038003222605,
          "lng": 77.31942459772308
        },
        {
          "name": "Khel Hiraji, Tal: Anjangaon-Surji",
          "lat": 21.168013747188375,
          "lng": 77.32276623375253
        },
        {
          "name": "Khel Khadse, Tal: Anjangaon-Surji",
          "lat": 21.16664295545026,
          "lng": 77.32189325526959
        },
        {
          "name": "Khel Kokat, Tal: Anjangaon-Surji",
          "lat": 21.164613885248418,
          "lng": 77.29380496318754
        },
        {
          "name": "Khel Krishnaji, Tal: Anjangaon-Surji",
          "lat": 21.16682542334223,
          "lng": 77.31212286814214
        },
        {
          "name": "Lashkar Amravati/Lashkar Amrawati, Tal: Amaravati",
          "lat": 20.934947522692283,
          "lng": 77.76447032722824
        },
        {
          "name": "Mahajanpur, Tal: Amaravati",
          "lat": 20.92480241799186,
          "lng": 77.7349735886909
        },
        {
          "name": "Masle, Tal: Amaravati",
          "lat": 20.947011524770417,
          "lng": 77.80103631758159
        },
        {
          "name": "Nagapur, Tal: Amaravati",
          "lat": 20.982781165895844,
          "lng": 77.77618084210832
        },
        {
          "name": "Navsari/Nawsari, Tal: Amaravati",
          "lat": 20.96592233565485,
          "lng": 77.73493282253743
        },
        {
          "name": "Nimbha Kh., Tal: Amaravati",
          "lat": 20.88226209326057,
          "lng": 77.74834468197677
        },
        {
          "name": "Peth Amravati/Peth Amrawati, Tal: Amaravati",
          "lat": 20.924402269072292,
          "lng": 77.73460064788706
        },
        {
          "name": "Rahatgaon, Tal: Amaravati",
          "lat": 20.973278337821245,
          "lng": 77.78480628513793
        },
        {
          "name": "Rajapeth, Tal: Amaravati",
          "lat": 20.91904314008761,
          "lng": 77.7568421913423
        },
        {
          "name": "Rasulpur, Tal: Amaravati",
          "lat": 20.934186459477466,
          "lng": 77.71392620932971
        },
        {
          "name": "Saturne, Tal: Amaravati",
          "lat": 20.902841446804203,
          "lng": 77.74607676307875
        },
        {
          "name": "Shahapur, Tal: Anjangaon-Surji",
          "lat": 21.172929615284474,
          "lng": 77.29250647433452
        },
        {
          "name": "Shegaon, Tal: Amaravati",
          "lat": 20.961792173151487,
          "lng": 77.76278297964868
        },
        {
          "name": "Sultanpur, Tal: Amaravati",
          "lat": 20.97932254278612,
          "lng": 77.73297204252066
        },
        {
          "name": "Surji, Tal: Anjangaon-Surji",
          "lat": 21.163735356959442,
          "lng": 77.30135590712595
        },
        {
          "name": "Tarkhed, Tal: Amaravati",
          "lat": 20.937586161723498,
          "lng": 77.74980599428838
        },
        {
          "name": "Wadad/Vadad, Tal: Amaravati",
          "lat": 20.874318596201427,
          "lng": 77.77248189965826
        },
        {
          "name": "Wadhoil/Vadhoil, Tal: Amaravati",
          "lat": 20.922137762152293,
          "lng": 77.7956459296387
        },
        {
          "name": "Waruda/Varuda, Tal: Amaravati",
          "lat": 20.84744579769609,
          "lng": 77.7420679793564
        }
      ],
      "sourceLink": "https://dtp.maharashtra.gov.in/home/downloads/dp/?cities=amravati",
      "price": "50",
      "focal": {
        "lat": 20.935204045449645,
        "lng": 77.7522308649469,
        "source": "village:Amravati",
        "zoom": 13
      },
      "fullMapUrl": "https://dpplans.com/maps.html?lat=20.935204045449645&lng=77.7522308649469&zoom=13",
      "embedUrl": "https://dpplans.com/maps.html?lat=20.935204045449645&lng=77.7522308649469&zoom=13&embed=1",
      "nearby": [
        {
          "slug": "akola-dp-plan",
          "displayName": "Akola",
          "shortName": "Akola",
          "distanceKm": 40.6
        },
        {
          "slug": "washim-region-dp-plan",
          "displayName": "Washim Region",
          "shortName": "Washim Region",
          "distanceKm": 116.3
        },
        {
          "slug": "buldhana-region-dp-plan",
          "displayName": "Buldhana Region",
          "shortName": "Buldhana Region",
          "distanceKm": 142.5
        },
        {
          "slug": "hingoli-dp-plan",
          "displayName": "Hingoli",
          "shortName": "Hingoli",
          "distanceKm": 157.6
        },
        {
          "slug": "nagpur-metropolitan-region-dp-plan",
          "displayName": "Nagpur Metropolitan Region",
          "shortName": "Nagpur Metropolitan Region",
          "distanceKm": 179.6
        }
      ],
      "faqs": [
        {
          "q": "Where can I view the Amravati Development Plan online?",
          "a": "You can view the Amravati DP map on Map Magician’s interactive viewer. The plan is overlaid on satellite imagery so you can identify zones, reservations and road lines for any plot in Amravati, Maharashtra."
        },
        {
          "q": "Is the Amravati DP map official?",
          "a": "The published Development Plan referenced here mirrors the source documents from Maharashtra Town Planning. The official PDFs are linked from the source: https://dtp.maharashtra.gov.in/home/downloads/dp/?cities=amravati"
        },
        {
          "q": "Can I see specific villages or sectors inside Amravati?",
          "a": "Yes — 37 sub-locations are indexed inside Amravati, including Amravati, Anjangaon Surji, Aiwajpur/Aivajpur, Tal: Anjangaon-Surji, Ajitpur, Tal: Anjangaon-Surji and more. Each can be opened directly from the search bar on the map."
        },
        {
          "q": "Is access free?",
          "a": "Browsing the Amravati region is free up to zoom level 14. High-detail (zoom 15–18) imagery is unlocked with a 7-day access pass."
        },
        {
          "q": "What devices does the Amravati DP viewer work on?",
          "a": "The viewer runs in any modern browser — desktop, tablet, or mobile. There is also a native Android app for offline access."
        }
      ],
      "features": [
        "Interactive zoom and pan over the entire Amravati Development Plan area",
        "Satellite + DP overlay so plot boundaries align with on-ground features",
        "Search by survey number, village or landmark inside Amravati",
        "Measure distances and areas directly on the Amravati map",
        "Mobile-friendly — view Amravati DP zones on the go",
        "37 indexed sub-locations inside Amravati"
      ]
    },
    {
      "slug": "aurangabad-dp-plan",
      "productPurchaseID": "districtaurangabad",
      "menuKey": "AurangabadMaharashtra",
      "displayName": "Aurangabad/Chatrapati Sambhaji Nagar",
      "rawDistrictName": "Aurangabad/Chatrapati Sambhaji Nagar (updated)",
      "shortName": "Aurangabad",
      "state": "Maharashtra",
      "iconUrl": "https://tiles.mapmagician.in/dpplans/0imagesGIS/icon_aurangabad.png",
      "stateIconUrl": "https://tiles.mapmagician.in/dpplans/0imagesGIS/maharashtra.png",
      "centroid": {
        "lat": 19.832795,
        "lng": 75.342583,
        "minZoom": null,
        "maxZoom": null
      },
      "bbox": [
        75.242024,
        19.457987,
        75.439479,
        19.950634
      ],
      "villages": [
        {
          "name": "Aurangabad",
          "lat": 19.878389566652828,
          "lng": 75.3250156132937
        },
        {
          "name": "Paithan",
          "lat": 19.47768,
          "lng": 75.387317
        },
        {
          "name": "Aurangabad, Tal: Aurangabad",
          "lat": 19.892369087003942,
          "lng": 75.31214995007117
        },
        {
          "name": "Banewadi/Banevadi, Tal: Aurangabad",
          "lat": 19.86594753852819,
          "lng": 75.29372379867947
        },
        {
          "name": "Bhawsinghpura/Bhavsinghpura, Tal: Aurangabad",
          "lat": 19.904688217586347,
          "lng": 75.29395468854719
        },
        {
          "name": "Brigwadi/Brigvadi, Tal: Aurangabad",
          "lat": 19.884192899530667,
          "lng": 75.38767580323392
        },
        {
          "name": "Chitkalthana, Tal: Aurangabad",
          "lat": 19.86592550860533,
          "lng": 75.41276172216322
        },
        {
          "name": "Devlai/Dewlai, Tal: Aurangabad",
          "lat": 19.84140806317275,
          "lng": 75.36173580933306
        },
        {
          "name": "Etkhed_ jhagir, Tal: Aurangabad",
          "lat": 19.847043470789018,
          "lng": 75.29897048263993
        },
        {
          "name": "Garkheda, Tal: Aurangabad",
          "lat": 19.861921840537423,
          "lng": 75.35904584158057
        },
        {
          "name": "Harsul, Tal: Aurangabad",
          "lat": 19.91904639065131,
          "lng": 75.35549372204191
        },
        {
          "name": "Hatesinghpura, Tal: Aurangabad",
          "lat": 19.896547590928716,
          "lng": 75.35596646604124
        },
        {
          "name": "himayatnagar, Tal: Aurangabad",
          "lat": 19.903066669479674,
          "lng": 75.33223908029284
        },
        {
          "name": "Jadhavwadi/Jadhawvadi, Tal: Aurangabad",
          "lat": 19.902885850845873,
          "lng": 75.3630613229189
        },
        {
          "name": "Jaswantpura/Jasvantpura, Tal: Aurangabad",
          "lat": 19.885776063889654,
          "lng": 75.3573107230488
        },
        {
          "name": "Kanchanpur, Tal: Aurangabad",
          "lat": 19.83026854557929,
          "lng": 75.29037848996633
        },
        {
          "name": "Mehsanatpur, Tal: Aurangabad",
          "lat": 19.88021007527527,
          "lng": 75.38114389570592
        },
        {
          "name": "Mukandwadi/Mukandvadi, Tal: Aurangabad",
          "lat": 19.86297011810242,
          "lng": 75.37827008944677
        },
        {
          "name": "Murtjapur, Tal: Aurangabad",
          "lat": 19.859491526907807,
          "lng": 75.39011095915961
        },
        {
          "name": "Nakshtrawadi/Nakshtravadi, Tal: Aurangabad",
          "lat": 19.81624411489568,
          "lng": 75.28509360958812
        },
        {
          "name": "Nanakwadi/Nanakvadi, Tal: Aurangabad",
          "lat": 19.904061256896913,
          "lng": 75.37623325269324
        },
        {
          "name": "Naregaon, Tal: Aurangabad",
          "lat": 19.893496606812587,
          "lng": 75.38256073766964
        },
        {
          "name": "paharsinghpura, Tal: Aurangabad",
          "lat": 19.90861305409854,
          "lng": 75.31252164293518
        },
        {
          "name": "Satara, Tal: Aurangabad",
          "lat": 19.837273818041353,
          "lng": 75.32673352778308
        },
        {
          "name": "Satara Tanda, Tal: Aurangabad",
          "lat": 19.813880233074176,
          "lng": 75.33365756053325
        },
        {
          "name": "shahnurwadi/shahnurvadi, Tal: Aurangabad",
          "lat": 19.85772826562449,
          "lng": 75.33333933668003
        }
      ],
      "sourceLink": "https://dtp.maharashtra.gov.in/home/downloads/dp/?cities=aurangabad",
      "price": "50",
      "focal": {
        "lat": 19.878389566652828,
        "lng": 75.3250156132937,
        "source": "village:Aurangabad",
        "zoom": 13
      },
      "fullMapUrl": "https://dpplans.com/maps.html?lat=19.878389566652828&lng=75.3250156132937&zoom=13",
      "embedUrl": "https://dpplans.com/maps.html?lat=19.878389566652828&lng=75.3250156132937&zoom=13&embed=1",
      "nearby": [
        {
          "slug": "jalna-region-dp-plan",
          "displayName": "Jalna Region",
          "shortName": "Jalna Region",
          "distanceKm": 64.9
        },
        {
          "slug": "ahmednagar-dp-plan",
          "displayName": "Ahmednagar / Ahilyanagar",
          "shortName": "Ahmednagar",
          "distanceKm": 89.6
        },
        {
          "slug": "buldhana-region-dp-plan",
          "displayName": "Buldhana Region",
          "shortName": "Buldhana Region",
          "distanceKm": 118
        },
        {
          "slug": "jalgaon-region-dp-plan",
          "displayName": "Jalgaon Region",
          "shortName": "Jalgaon Region",
          "distanceKm": 131.9
        },
        {
          "slug": "dhule-dp-plan",
          "displayName": "Dhule",
          "shortName": "Dhule",
          "distanceKm": 132.5
        }
      ],
      "faqs": [
        {
          "q": "Where can I view the Aurangabad Development Plan online?",
          "a": "You can view the Aurangabad/Chatrapati Sambhaji Nagar DP map on Map Magician’s interactive viewer. The plan is overlaid on satellite imagery so you can identify zones, reservations and road lines for any plot in Aurangabad, Maharashtra."
        },
        {
          "q": "Is the Aurangabad DP map official?",
          "a": "The published Development Plan referenced here mirrors the source documents from Maharashtra Town Planning. The official PDFs are linked from the source: https://dtp.maharashtra.gov.in/home/downloads/dp/?cities=aurangabad"
        },
        {
          "q": "Can I see specific villages or sectors inside Aurangabad?",
          "a": "Yes — 26 sub-locations are indexed inside Aurangabad, including Aurangabad, Paithan, Aurangabad, Tal: Aurangabad, Banewadi/Banevadi, Tal: Aurangabad and more. Each can be opened directly from the search bar on the map."
        },
        {
          "q": "Is access free?",
          "a": "Browsing the Aurangabad region is free up to zoom level 14. High-detail (zoom 15–18) imagery is unlocked with a 7-day access pass."
        },
        {
          "q": "What devices does the Aurangabad DP viewer work on?",
          "a": "The viewer runs in any modern browser — desktop, tablet, or mobile. There is also a native Android app for offline access."
        }
      ],
      "features": [
        "Interactive zoom and pan over the entire Aurangabad Development Plan area",
        "Satellite + DP overlay so plot boundaries align with on-ground features",
        "Search by survey number, village or landmark inside Aurangabad",
        "Measure distances and areas directly on the Aurangabad map",
        "Mobile-friendly — view Aurangabad DP zones on the go",
        "26 indexed sub-locations inside Aurangabad"
      ]
    },
    {
      "slug": "bhandara-region-dp-plan",
      "productPurchaseID": "bhandara",
      "menuKey": "BhandaraMaharashtra",
      "displayName": "Bhandara Region",
      "rawDistrictName": "Bhandara Region",
      "shortName": "Bhandara Region",
      "state": "Maharashtra",
      "iconUrl": "https://tiles.mapmagician.in/dpplans/0imagesGIS/bhandara_icon.png",
      "stateIconUrl": "https://tiles.mapmagician.in/dpplans/0imagesGIS/maharashtra.png",
      "centroid": {
        "lat": 21.175165,
        "lng": 79.651871,
        "minZoom": null,
        "maxZoom": null
      },
      "bbox": [
        79.634338,
        21.145187,
        79.680016,
        21.197377
      ],
      "villages": [
        {
          "name": "Bhandara (MCI), Tal: Bhandara",
          "lat": 21.19101602918357,
          "lng": 79.65675801868203
        },
        {
          "name": "Ganeshpur (CT), Tal: Bhandara",
          "lat": 21.15454994648768,
          "lng": 79.64481545401868
        },
        {
          "name": "Kesalwada/Kesalvada, Tal: Bhandara",
          "lat": 21.190950631913896,
          "lng": 79.64089497608346
        }
      ],
      "sourceLink": "https://dtp.maharashtra.gov.in/home/downloads/dp/?cities=bhandara",
      "price": "50",
      "focal": {
        "lat": 21.19101602918357,
        "lng": 79.65675801868203,
        "source": "village:Bhandara (MCI), Tal: Bhandara",
        "zoom": 13
      },
      "fullMapUrl": "https://dpplans.com/maps.html?lat=21.19101602918357&lng=79.65675801868203&zoom=13",
      "embedUrl": "https://dpplans.com/maps.html?lat=21.19101602918357&lng=79.65675801868203&zoom=13&embed=1",
      "nearby": [
        {
          "slug": "nagpur-metropolitan-region-dp-plan",
          "displayName": "Nagpur Metropolitan Region",
          "shortName": "Nagpur Metropolitan Region",
          "distanceKm": 52.7
        },
        {
          "slug": "chandrapur-region-dp-plan",
          "displayName": "Chandrapur Region",
          "shortName": "Chandrapur Region",
          "distanceKm": 140.3
        },
        {
          "slug": "amravati-dp-plan",
          "displayName": "Amravati",
          "shortName": "Amravati",
          "distanceKm": 232.4
        },
        {
          "slug": "akola-dp-plan",
          "displayName": "Akola",
          "shortName": "Akola",
          "distanceKm": 271.3
        },
        {
          "slug": "washim-region-dp-plan",
          "displayName": "Washim Region",
          "shortName": "Washim Region",
          "distanceKm": 288.3
        }
      ],
      "faqs": [
        {
          "q": "Where can I view the Bhandara Region Development Plan online?",
          "a": "You can view the Bhandara Region DP map on Map Magician’s interactive viewer. The plan is overlaid on satellite imagery so you can identify zones, reservations and road lines for any plot in Bhandara Region, Maharashtra."
        },
        {
          "q": "Is the Bhandara Region DP map official?",
          "a": "The published Development Plan referenced here mirrors the source documents from Maharashtra Town Planning. The official PDFs are linked from the source: https://dtp.maharashtra.gov.in/home/downloads/dp/?cities=bhandara"
        },
        {
          "q": "Can I see specific villages or sectors inside Bhandara Region?",
          "a": "Yes — 3 sub-locations are indexed inside Bhandara Region, including Bhandara (MCI), Tal: Bhandara, Ganeshpur (CT), Tal: Bhandara, Kesalwada/Kesalvada, Tal: Bhandara and more. Each can be opened directly from the search bar on the map."
        },
        {
          "q": "Is access free?",
          "a": "Browsing the Bhandara Region region is free up to zoom level 14. High-detail (zoom 15–18) imagery is unlocked with a 7-day access pass."
        },
        {
          "q": "What devices does the Bhandara Region DP viewer work on?",
          "a": "The viewer runs in any modern browser — desktop, tablet, or mobile. There is also a native Android app for offline access."
        }
      ],
      "features": [
        "Interactive zoom and pan over the entire Bhandara Region Development Plan area",
        "Satellite + DP overlay so plot boundaries align with on-ground features",
        "Search by survey number, village or landmark inside Bhandara Region",
        "Measure distances and areas directly on the Bhandara Region map",
        "Mobile-friendly — view Bhandara Region DP zones on the go",
        "3 indexed sub-locations inside Bhandara Region"
      ]
    },
    {
      "slug": "buldhana-region-dp-plan",
      "productPurchaseID": "buldhana",
      "menuKey": "BuldhanaMaharashtra",
      "displayName": "Buldhana Region",
      "rawDistrictName": "Buldhana Region",
      "shortName": "Buldhana Region",
      "state": "Maharashtra",
      "iconUrl": "https://tiles.mapmagician.in/dpplans/0imagesGIS/buldhana_icon.png",
      "stateIconUrl": "https://tiles.mapmagician.in/dpplans/0imagesGIS/maharashtra.png",
      "centroid": {
        "lat": 20.540923,
        "lng": 76.184384,
        "minZoom": null,
        "maxZoom": null
      },
      "bbox": [
        76.163341,
        20.519302,
        76.206476,
        20.555557
      ],
      "villages": [
        {
          "name": "Buldhana",
          "lat": 20.535862476648475,
          "lng": 76.17908100052459
        }
      ],
      "sourceLink": "https://dtp.maharashtra.gov.in/home/downloads/dp/?cities=buldhana",
      "price": "50",
      "focal": {
        "lat": 20.535862476648475,
        "lng": 76.17908100052459,
        "source": "village:Buldhana",
        "zoom": 13
      },
      "fullMapUrl": "https://dpplans.com/maps.html?lat=20.535862476648475&lng=76.17908100052459&zoom=13",
      "embedUrl": "https://dpplans.com/maps.html?lat=20.535862476648475&lng=76.17908100052459&zoom=13&embed=1",
      "nearby": [
        {
          "slug": "jalna-region-dp-plan",
          "displayName": "Jalna Region",
          "shortName": "Jalna Region",
          "distanceKm": 81
        },
        {
          "slug": "jalgaon-region-dp-plan",
          "displayName": "Jalgaon Region",
          "shortName": "Jalgaon Region",
          "distanceKm": 82
        },
        {
          "slug": "akola-dp-plan",
          "displayName": "Akola",
          "shortName": "Akola",
          "distanceKm": 102.2
        },
        {
          "slug": "washim-region-dp-plan",
          "displayName": "Washim Region",
          "shortName": "Washim Region",
          "distanceKm": 110.3
        },
        {
          "slug": "aurangabad-dp-plan",
          "displayName": "Aurangabad/Chatrapati Sambhaji Nagar",
          "shortName": "Aurangabad",
          "distanceKm": 118
        }
      ],
      "faqs": [
        {
          "q": "Where can I view the Buldhana Region Development Plan online?",
          "a": "You can view the Buldhana Region DP map on Map Magician’s interactive viewer. The plan is overlaid on satellite imagery so you can identify zones, reservations and road lines for any plot in Buldhana Region, Maharashtra."
        },
        {
          "q": "Is the Buldhana Region DP map official?",
          "a": "The published Development Plan referenced here mirrors the source documents from Maharashtra Town Planning. The official PDFs are linked from the source: https://dtp.maharashtra.gov.in/home/downloads/dp/?cities=buldhana"
        },
        {
          "q": "Can I see specific villages or sectors inside Buldhana Region?",
          "a": "Yes — 1 sub-locations are indexed inside Buldhana Region, including Buldhana and more. Each can be opened directly from the search bar on the map."
        },
        {
          "q": "Is access free?",
          "a": "Browsing the Buldhana Region region is free up to zoom level 14. High-detail (zoom 15–18) imagery is unlocked with a 7-day access pass."
        },
        {
          "q": "What devices does the Buldhana Region DP viewer work on?",
          "a": "The viewer runs in any modern browser — desktop, tablet, or mobile. There is also a native Android app for offline access."
        }
      ],
      "features": [
        "Interactive zoom and pan over the entire Buldhana Region Development Plan area",
        "Satellite + DP overlay so plot boundaries align with on-ground features",
        "Search by survey number, village or landmark inside Buldhana Region",
        "Measure distances and areas directly on the Buldhana Region map",
        "Mobile-friendly — view Buldhana Region DP zones on the go",
        "1 indexed sub-locations inside Buldhana Region"
      ]
    },
    {
      "slug": "chandrapur-region-dp-plan",
      "productPurchaseID": "chandrapur",
      "menuKey": "ChandrapurMaharashtra",
      "displayName": "Chandrapur Region",
      "rawDistrictName": "Chandrapur Region",
      "shortName": "Chandrapur Region",
      "state": "Maharashtra",
      "iconUrl": "https://tiles.mapmagician.in/dpplans/0imagesGIS/chandrapur_icon.png",
      "stateIconUrl": "https://tiles.mapmagician.in/dpplans/0imagesGIS/maharashtra.png",
      "centroid": {
        "lat": 19.956842,
        "lng": 79.301633,
        "minZoom": null,
        "maxZoom": null
      },
      "bbox": [
        79.266065,
        19.898433,
        79.34669,
        19.999996
      ],
      "villages": [
        {
          "name": "Chandrapur",
          "lat": 19.968831846098436,
          "lng": 79.29562475891375
        },
        {
          "name": "Bor Rith, Tal: Chandrapur",
          "lat": 19.9364096293719,
          "lng": 79.28116297853101
        },
        {
          "name": "Chanda khas Raiyyat (Chandrapur (MCI)), Tal: Chandrapur",
          "lat": 19.948676359101352,
          "lng": 79.29156410823465
        },
        {
          "name": "Chandrapur (MCI), Tal: Chandrapur",
          "lat": 19.954730579875324,
          "lng": 79.29957585671887
        },
        {
          "name": "Deoli Govindpur  tukum (Chandrapur (MCI))/Deoli Gowindpur  tukum (Chandrapur (MCI)), Tal: Chandrapur",
          "lat": 19.97624600124602,
          "lng": 79.29794828969682
        },
        {
          "name": "Dharmashala Tukum, Tal: Ballarpur",
          "lat": 19.903602694491344,
          "lng": 79.3163825558687
        },
        {
          "name": "Govindpur Rith (Chandrapur (MCI))/Gowindpur Rith (Chandrapur (MCI)), Tal: Chandrapur",
          "lat": 19.961934164076872,
          "lng": 79.2807000584287
        },
        {
          "name": "Mana (Chandrapur (MCI)), Tal: Chandrapur",
          "lat": 19.91201473973575,
          "lng": 79.30036287085865
        },
        {
          "name": "Urjanagar, Tal: Chandrapur",
          "lat": 19.99519074081002,
          "lng": 79.3038986546613
        },
        {
          "name": "Wadgaon (Chandrapur (MCI))/Vadgaon (Chandrapur (MCI)), Tal: Chandrapur",
          "lat": 19.98572489380308,
          "lng": 79.27799318760778
        }
      ],
      "sourceLink": "https://dtp.maharashtra.gov.in/home/downloads/dp/?cities=chandrapur",
      "price": "50",
      "focal": {
        "lat": 19.968831846098436,
        "lng": 79.29562475891375,
        "source": "village:Chandrapur",
        "zoom": 13
      },
      "fullMapUrl": "https://dpplans.com/maps.html?lat=19.968831846098436&lng=79.29562475891375&zoom=13",
      "embedUrl": "https://dpplans.com/maps.html?lat=19.968831846098436&lng=79.29562475891375&zoom=13&embed=1",
      "nearby": [
        {
          "slug": "nagpur-metropolitan-region-dp-plan",
          "displayName": "Nagpur Metropolitan Region",
          "shortName": "Nagpur Metropolitan Region",
          "distanceKm": 135.8
        },
        {
          "slug": "bhandara-region-dp-plan",
          "displayName": "Bhandara Region",
          "shortName": "Bhandara Region",
          "distanceKm": 140.3
        },
        {
          "slug": "nanded-waghala-municipal-corporation-dp-plan",
          "displayName": "Nanded Waghala Municipal Corporation",
          "shortName": "Nanded Waghala Municipal Corporation",
          "distanceKm": 225.7
        },
        {
          "slug": "washim-region-dp-plan",
          "displayName": "Washim Region",
          "shortName": "Washim Region",
          "distanceKm": 227.3
        },
        {
          "slug": "hingoli-dp-plan",
          "displayName": "Hingoli",
          "shortName": "Hingoli",
          "distanceKm": 227.6
        }
      ],
      "faqs": [
        {
          "q": "Where can I view the Chandrapur Region Development Plan online?",
          "a": "You can view the Chandrapur Region DP map on Map Magician’s interactive viewer. The plan is overlaid on satellite imagery so you can identify zones, reservations and road lines for any plot in Chandrapur Region, Maharashtra."
        },
        {
          "q": "Is the Chandrapur Region DP map official?",
          "a": "The published Development Plan referenced here mirrors the source documents from Maharashtra Town Planning. The official PDFs are linked from the source: https://dtp.maharashtra.gov.in/home/downloads/dp/?cities=chandrapur"
        },
        {
          "q": "Can I see specific villages or sectors inside Chandrapur Region?",
          "a": "Yes — 10 sub-locations are indexed inside Chandrapur Region, including Chandrapur, Bor Rith, Tal: Chandrapur, Chanda khas Raiyyat (Chandrapur (MCI)), Tal: Chandrapur, Chandrapur (MCI), Tal: Chandrapur and more. Each can be opened directly from the search bar on the map."
        },
        {
          "q": "Is access free?",
          "a": "Browsing the Chandrapur Region region is free up to zoom level 14. High-detail (zoom 15–18) imagery is unlocked with a 7-day access pass."
        },
        {
          "q": "What devices does the Chandrapur Region DP viewer work on?",
          "a": "The viewer runs in any modern browser — desktop, tablet, or mobile. There is also a native Android app for offline access."
        }
      ],
      "features": [
        "Interactive zoom and pan over the entire Chandrapur Region Development Plan area",
        "Satellite + DP overlay so plot boundaries align with on-ground features",
        "Search by survey number, village or landmark inside Chandrapur Region",
        "Measure distances and areas directly on the Chandrapur Region map",
        "Mobile-friendly — view Chandrapur Region DP zones on the go",
        "10 indexed sub-locations inside Chandrapur Region"
      ]
    },
    {
      "slug": "dhule-dp-plan",
      "productPurchaseID": "dhuledistrict",
      "menuKey": "DhuleMaharashtra",
      "displayName": "Dhule",
      "rawDistrictName": "Dhule",
      "shortName": "Dhule",
      "state": "Maharashtra",
      "iconUrl": "https://tiles.mapmagician.in/dpplans/0imagesGIS/dhule.png",
      "stateIconUrl": "https://tiles.mapmagician.in/dpplans/0imagesGIS/maharashtra.png",
      "centroid": {
        "lat": 20.900495,
        "lng": 74.778231,
        "minZoom": null,
        "maxZoom": null
      },
      "bbox": [
        74.744432,
        20.857097,
        74.817255,
        20.942584
      ],
      "villages": [
        {
          "name": "Dhule",
          "lat": 20.904325,
          "lng": 74.768495
        },
        {
          "name": "Devpura/Dewpura, Tal: Dhule",
          "lat": 20.925153721638445,
          "lng": 74.77949626969779
        },
        {
          "name": "Dhule, Tal: Dhule",
          "lat": 20.891712176565164,
          "lng": 74.7819410364169
        },
        {
          "name": "Mahindale, Tal: Dhule",
          "lat": 20.894861399400444,
          "lng": 74.7486328396589
        },
        {
          "name": "Morane Pr.Laling, Tal: Dhule",
          "lat": 20.86711621889623,
          "lng": 74.78258847090318
        },
        {
          "name": "Walwadi/Valvadi, Tal: Dhule",
          "lat": 20.926865326519646,
          "lng": 74.76027206501442
        }
      ],
      "sourceLink": "https://dtp.maharashtra.gov.in/home/downloads/dp/?cities=dhule",
      "price": "50",
      "focal": {
        "lat": 20.904325,
        "lng": 74.768495,
        "source": "village:Dhule",
        "zoom": 13
      },
      "fullMapUrl": "https://dpplans.com/maps.html?lat=20.904325&lng=74.768495&zoom=13",
      "embedUrl": "https://dpplans.com/maps.html?lat=20.904325&lng=74.768495&zoom=13&embed=1",
      "nearby": [
        {
          "slug": "nandurbar-region-dp-plan",
          "displayName": "Nandurbar Region",
          "shortName": "Nandurbar Region",
          "distanceKm": 75.4
        },
        {
          "slug": "jalgaon-region-dp-plan",
          "displayName": "Jalgaon Region",
          "shortName": "Jalgaon Region",
          "distanceKm": 82.7
        },
        {
          "slug": "aurangabad-dp-plan",
          "displayName": "Aurangabad/Chatrapati Sambhaji Nagar",
          "shortName": "Aurangabad",
          "distanceKm": 132.5
        },
        {
          "slug": "nashik-dp-plan",
          "displayName": "Nashik",
          "shortName": "Nashik",
          "distanceKm": 146.6
        },
        {
          "slug": "buldhana-region-dp-plan",
          "displayName": "Buldhana Region",
          "shortName": "Buldhana Region",
          "distanceKm": 151.6
        }
      ],
      "faqs": [
        {
          "q": "Where can I view the Dhule Development Plan online?",
          "a": "You can view the Dhule DP map on Map Magician’s interactive viewer. The plan is overlaid on satellite imagery so you can identify zones, reservations and road lines for any plot in Dhule, Maharashtra."
        },
        {
          "q": "Is the Dhule DP map official?",
          "a": "The published Development Plan referenced here mirrors the source documents from Maharashtra Town Planning. The official PDFs are linked from the source: https://dtp.maharashtra.gov.in/home/downloads/dp/?cities=dhule"
        },
        {
          "q": "Can I see specific villages or sectors inside Dhule?",
          "a": "Yes — 6 sub-locations are indexed inside Dhule, including Dhule, Devpura/Dewpura, Tal: Dhule, Dhule, Tal: Dhule, Mahindale, Tal: Dhule and more. Each can be opened directly from the search bar on the map."
        },
        {
          "q": "Is access free?",
          "a": "Browsing the Dhule region is free up to zoom level 14. High-detail (zoom 15–18) imagery is unlocked with a 7-day access pass."
        },
        {
          "q": "What devices does the Dhule DP viewer work on?",
          "a": "The viewer runs in any modern browser — desktop, tablet, or mobile. There is also a native Android app for offline access."
        }
      ],
      "features": [
        "Interactive zoom and pan over the entire Dhule Development Plan area",
        "Satellite + DP overlay so plot boundaries align with on-ground features",
        "Search by survey number, village or landmark inside Dhule",
        "Measure distances and areas directly on the Dhule map",
        "Mobile-friendly — view Dhule DP zones on the go",
        "6 indexed sub-locations inside Dhule"
      ]
    },
    {
      "slug": "hingoli-dp-plan",
      "productPurchaseID": "hingoli",
      "menuKey": "HingoliMaharashtra",
      "displayName": "Hingoli",
      "rawDistrictName": "Hingoli",
      "shortName": "Hingoli",
      "state": "Maharashtra",
      "iconUrl": "https://tiles.mapmagician.in/dpplans/0imagesGIS/hingoli_icon.png",
      "stateIconUrl": "https://tiles.mapmagician.in/dpplans/0imagesGIS/maharashtra.png",
      "centroid": {
        "lat": 19.715846,
        "lng": 77.140829,
        "minZoom": 11,
        "maxZoom": 20
      },
      "bbox": [
        77.12166,
        19.68574,
        77.177329,
        19.748829
      ],
      "villages": [
        {
          "name": "Hingoli",
          "lat": 19.71510493826503,
          "lng": 77.13932997024246
        },
        {
          "name": "Andharwadi/Andharvadi, Tal: Hingoli",
          "lat": 19.74910112126384,
          "lng": 77.14240931450493
        },
        {
          "name": "Balsond, Tal: Hingoli",
          "lat": 19.74752220886422,
          "lng": 77.1593240065995
        },
        {
          "name": "Bukanwadi/Bukanvadi, Tal: Hingoli",
          "lat": 19.73058939993018,
          "lng": 77.13041485299846
        },
        {
          "name": "Chikhalwadi/Chikhalvadi, Tal: Hingoli",
          "lat": 19.686189556252913,
          "lng": 77.16569300050503
        },
        {
          "name": "Ganeshwadi/Ganeshvadi, Tal: Hingoli",
          "lat": 19.731958545436694,
          "lng": 77.15830182540601
        },
        {
          "name": "Hingoli Rural, Tal: Hingoli",
          "lat": 19.707627660251497,
          "lng": 77.14057896517278
        },
        {
          "name": "Karwadi/Karvadi, Tal: Hingoli",
          "lat": 19.72156236646969,
          "lng": 77.173650451202
        },
        {
          "name": "Khambala, Tal: Hingoli",
          "lat": 19.748600156419926,
          "lng": 77.12649602815735
        },
        {
          "name": "Malharwadi/Malharvadi, Tal: Hingoli",
          "lat": 19.735375579435757,
          "lng": 77.14234474699875
        },
        {
          "name": "Malwadi/Malvadi, Tal: Hingoli",
          "lat": 19.698242485401096,
          "lng": 77.17305696649761
        },
        {
          "name": "Rajwadi/Rajvadi, Tal: Hingoli",
          "lat": 19.691868012152533,
          "lng": 77.15643367751952
        },
        {
          "name": "Sigarwadi/Sigarvadi, Tal: Hingoli",
          "lat": 19.68627137045975,
          "lng": 77.13617918761764
        }
      ],
      "sourceLink": "https://dtp.maharashtra.gov.in/home/downloads/dp/?cities=hingoli",
      "price": "50",
      "focal": {
        "lat": 19.71510493826503,
        "lng": 77.13932997024246,
        "source": "village:Hingoli",
        "zoom": 13
      },
      "fullMapUrl": "https://dpplans.com/maps.html?lat=19.71510493826503&lng=77.13932997024246&zoom=13",
      "embedUrl": "https://dpplans.com/maps.html?lat=19.71510493826503&lng=77.13932997024246&zoom=13&embed=1",
      "nearby": [
        {
          "slug": "washim-region-dp-plan",
          "displayName": "Washim Region",
          "shortName": "Washim Region",
          "distanceKm": 42.6
        },
        {
          "slug": "parbhani-region-dp-plan",
          "displayName": "Parbhani Region",
          "shortName": "Parbhani Region",
          "distanceKm": 63.5
        },
        {
          "slug": "nanded-waghala-municipal-corporation-dp-plan",
          "displayName": "Nanded Waghala Municipal Corporation",
          "shortName": "Nanded Waghala Municipal Corporation",
          "distanceKm": 64.4
        },
        {
          "slug": "jalna-region-dp-plan",
          "displayName": "Jalna Region",
          "shortName": "Jalna Region",
          "distanceKm": 124.1
        },
        {
          "slug": "buldhana-region-dp-plan",
          "displayName": "Buldhana Region",
          "shortName": "Buldhana Region",
          "distanceKm": 135.6
        }
      ],
      "faqs": [
        {
          "q": "Where can I view the Hingoli Development Plan online?",
          "a": "You can view the Hingoli DP map on Map Magician’s interactive viewer. The plan is overlaid on satellite imagery so you can identify zones, reservations and road lines for any plot in Hingoli, Maharashtra."
        },
        {
          "q": "Is the Hingoli DP map official?",
          "a": "The published Development Plan referenced here mirrors the source documents from Maharashtra Town Planning. The official PDFs are linked from the source: https://dtp.maharashtra.gov.in/home/downloads/dp/?cities=hingoli"
        },
        {
          "q": "Can I see specific villages or sectors inside Hingoli?",
          "a": "Yes — 13 sub-locations are indexed inside Hingoli, including Hingoli, Andharwadi/Andharvadi, Tal: Hingoli, Balsond, Tal: Hingoli, Bukanwadi/Bukanvadi, Tal: Hingoli and more. Each can be opened directly from the search bar on the map."
        },
        {
          "q": "Is access free?",
          "a": "Browsing the Hingoli region is free up to zoom level 14. High-detail (zoom 15–20) imagery is unlocked with a 7-day access pass."
        },
        {
          "q": "What devices does the Hingoli DP viewer work on?",
          "a": "The viewer runs in any modern browser — desktop, tablet, or mobile. There is also a native Android app for offline access."
        }
      ],
      "features": [
        "Interactive zoom and pan over the entire Hingoli Development Plan area",
        "Satellite + DP overlay so plot boundaries align with on-ground features",
        "Search by survey number, village or landmark inside Hingoli",
        "Measure distances and areas directly on the Hingoli map",
        "Mobile-friendly — view Hingoli DP zones on the go",
        "13 indexed sub-locations inside Hingoli"
      ]
    },
    {
      "slug": "jalgaon-region-dp-plan",
      "productPurchaseID": "jalgaon",
      "menuKey": "JalgaonMaharashtra",
      "displayName": "Jalgaon Region",
      "rawDistrictName": "Jalgaon Region",
      "shortName": "Jalgaon Region",
      "state": "Maharashtra",
      "iconUrl": "https://tiles.mapmagician.in/dpplans/0imagesGIS/jalgaon_icon.png",
      "stateIconUrl": "https://tiles.mapmagician.in/dpplans/0imagesGIS/maharashtra.png",
      "centroid": {
        "lat": 20.999847,
        "lng": 75.567107,
        "minZoom": 1,
        "maxZoom": 21
      },
      "bbox": [
        75.509717,
        20.934909,
        75.623805,
        21.04117
      ],
      "villages": [
        {
          "name": "Jalgaon",
          "lat": 20.998309996802792,
          "lng": 75.57028198078685
        }
      ],
      "sourceLink": "https://dtp.maharashtra.gov.in/home/downloads/dp/?cities=jalgaon",
      "price": "50",
      "focal": {
        "lat": 20.998309996802792,
        "lng": 75.57028198078685,
        "source": "village:Jalgaon",
        "zoom": 13
      },
      "fullMapUrl": "https://dpplans.com/maps.html?lat=20.998309996802792&lng=75.57028198078685&zoom=13",
      "embedUrl": "https://dpplans.com/maps.html?lat=20.998309996802792&lng=75.57028198078685&zoom=13&embed=1",
      "nearby": [
        {
          "slug": "buldhana-region-dp-plan",
          "displayName": "Buldhana Region",
          "shortName": "Buldhana Region",
          "distanceKm": 82
        },
        {
          "slug": "dhule-dp-plan",
          "displayName": "Dhule",
          "shortName": "Dhule",
          "distanceKm": 82.7
        },
        {
          "slug": "aurangabad-dp-plan",
          "displayName": "Aurangabad/Chatrapati Sambhaji Nagar",
          "shortName": "Aurangabad",
          "distanceKm": 131.9
        },
        {
          "slug": "jalna-region-dp-plan",
          "displayName": "Jalna Region",
          "shortName": "Jalna Region",
          "distanceKm": 135.1
        },
        {
          "slug": "nandurbar-region-dp-plan",
          "displayName": "Nandurbar Region",
          "shortName": "Nandurbar Region",
          "distanceKm": 142.8
        }
      ],
      "faqs": [
        {
          "q": "Where can I view the Jalgaon Region Development Plan online?",
          "a": "You can view the Jalgaon Region DP map on Map Magician’s interactive viewer. The plan is overlaid on satellite imagery so you can identify zones, reservations and road lines for any plot in Jalgaon Region, Maharashtra."
        },
        {
          "q": "Is the Jalgaon Region DP map official?",
          "a": "The published Development Plan referenced here mirrors the source documents from Maharashtra Town Planning. The official PDFs are linked from the source: https://dtp.maharashtra.gov.in/home/downloads/dp/?cities=jalgaon"
        },
        {
          "q": "Can I see specific villages or sectors inside Jalgaon Region?",
          "a": "Yes — 1 sub-locations are indexed inside Jalgaon Region, including Jalgaon and more. Each can be opened directly from the search bar on the map."
        },
        {
          "q": "Is access free?",
          "a": "Browsing the Jalgaon Region region is free up to zoom level 14. High-detail (zoom 15–21) imagery is unlocked with a 7-day access pass."
        },
        {
          "q": "What devices does the Jalgaon Region DP viewer work on?",
          "a": "The viewer runs in any modern browser — desktop, tablet, or mobile. There is also a native Android app for offline access."
        }
      ],
      "features": [
        "Interactive zoom and pan over the entire Jalgaon Region Development Plan area",
        "Satellite + DP overlay so plot boundaries align with on-ground features",
        "Search by survey number, village or landmark inside Jalgaon Region",
        "Measure distances and areas directly on the Jalgaon Region map",
        "Mobile-friendly — view Jalgaon Region DP zones on the go",
        "1 indexed sub-locations inside Jalgaon Region"
      ]
    },
    {
      "slug": "jalna-region-dp-plan",
      "productPurchaseID": "jalna",
      "menuKey": "JalnaMaharashtra",
      "displayName": "Jalna Region",
      "rawDistrictName": "Jalna Region",
      "shortName": "Jalna Region",
      "state": "Maharashtra",
      "iconUrl": "https://tiles.mapmagician.in/dpplans/0imagesGIS/jalna_icon.png",
      "stateIconUrl": "https://tiles.mapmagician.in/dpplans/0imagesGIS/maharashtra.png",
      "centroid": {
        "lat": 19.843122,
        "lng": 75.962917,
        "minZoom": 11,
        "maxZoom": 20
      },
      "bbox": [
        75.738986,
        19.488018,
        76.401471,
        20.280336
      ],
      "villages": [
        {
          "name": "Jalna",
          "lat": 19.850129764054397,
          "lng": 75.87050830392342
        },
        {
          "name": "Ambad",
          "lat": 19.607852,
          "lng": 75.79156
        },
        {
          "name": "Bhokardan",
          "lat": 20.2552185,
          "lng": 75.768015
        },
        {
          "name": "Ghansangvi",
          "lat": 19.51591,
          "lng": 75.987436
        },
        {
          "name": "Mantha",
          "lat": 19.649279,
          "lng": 76.389205
        },
        {
          "name": "Partur",
          "lat": 19.597734,
          "lng": 76.214285
        },
        {
          "name": "Jalna, Tal: Jalna",
          "lat": 19.839215204816487,
          "lng": 75.82749926574775
        },
        {
          "name": "Jamwadi/Jamvadi, Tal: Jalna",
          "lat": 19.85009198038068,
          "lng": 75.89025210198332
        },
        {
          "name": "Parner, Tal: Ambad",
          "lat": 19.606630475905362,
          "lng": 75.78847836725296
        },
        {
          "name": "Pralhadpur, Tal: Bokardan",
          "lat": 20.258405587250845,
          "lng": 75.76627668194813
        },
        {
          "name": "Rajegaon, Tal: Ghan",
          "lat": 19.52650002744637,
          "lng": 75.98871864315117
        },
        {
          "name": "Rohina Bk., Tal: Partur",
          "lat": 19.59202520415348,
          "lng": 76.21758738031716
        },
        {
          "name": "Tokwadi/Tokvadi, Tal: Mantha",
          "lat": 19.650273887590846,
          "lng": 76.38089822077198
        }
      ],
      "sourceLink": "https://dtp.maharashtra.gov.in/home/downloads/dp/?cities=jalna",
      "price": "50",
      "focal": {
        "lat": 19.850129764054397,
        "lng": 75.87050830392342,
        "source": "village:Jalna",
        "zoom": 13
      },
      "fullMapUrl": "https://dpplans.com/maps.html?lat=19.850129764054397&lng=75.87050830392342&zoom=13",
      "embedUrl": "https://dpplans.com/maps.html?lat=19.850129764054397&lng=75.87050830392342&zoom=13&embed=1",
      "nearby": [
        {
          "slug": "aurangabad-dp-plan",
          "displayName": "Aurangabad/Chatrapati Sambhaji Nagar",
          "shortName": "Aurangabad",
          "distanceKm": 64.9
        },
        {
          "slug": "buldhana-region-dp-plan",
          "displayName": "Buldhana Region",
          "shortName": "Buldhana Region",
          "distanceKm": 81
        },
        {
          "slug": "parbhani-region-dp-plan",
          "displayName": "Parbhani Region",
          "shortName": "Parbhani Region",
          "distanceKm": 96.2
        },
        {
          "slug": "hingoli-dp-plan",
          "displayName": "Hingoli",
          "shortName": "Hingoli",
          "distanceKm": 124.1
        },
        {
          "slug": "washim-region-dp-plan",
          "displayName": "Washim Region",
          "shortName": "Washim Region",
          "distanceKm": 125.3
        }
      ],
      "faqs": [
        {
          "q": "Where can I view the Jalna Region Development Plan online?",
          "a": "You can view the Jalna Region DP map on Map Magician’s interactive viewer. The plan is overlaid on satellite imagery so you can identify zones, reservations and road lines for any plot in Jalna Region, Maharashtra."
        },
        {
          "q": "Is the Jalna Region DP map official?",
          "a": "The published Development Plan referenced here mirrors the source documents from Maharashtra Town Planning. The official PDFs are linked from the source: https://dtp.maharashtra.gov.in/home/downloads/dp/?cities=jalna"
        },
        {
          "q": "Can I see specific villages or sectors inside Jalna Region?",
          "a": "Yes — 13 sub-locations are indexed inside Jalna Region, including Jalna, Ambad, Bhokardan, Ghansangvi and more. Each can be opened directly from the search bar on the map."
        },
        {
          "q": "Is access free?",
          "a": "Browsing the Jalna Region region is free up to zoom level 14. High-detail (zoom 15–20) imagery is unlocked with a 7-day access pass."
        },
        {
          "q": "What devices does the Jalna Region DP viewer work on?",
          "a": "The viewer runs in any modern browser — desktop, tablet, or mobile. There is also a native Android app for offline access."
        }
      ],
      "features": [
        "Interactive zoom and pan over the entire Jalna Region Development Plan area",
        "Satellite + DP overlay so plot boundaries align with on-ground features",
        "Search by survey number, village or landmark inside Jalna Region",
        "Measure distances and areas directly on the Jalna Region map",
        "Mobile-friendly — view Jalna Region DP zones on the go",
        "13 indexed sub-locations inside Jalna Region"
      ]
    },
    {
      "slug": "karjat-msrdc-corridor",
      "productPurchaseID": "msrdc_karjat",
      "menuKey": "MSRDCKarjat",
      "displayName": "Karjat – MSRDC Corridor",
      "rawDistrictName": "Karjat – MSRDC Corridor (New)",
      "shortName": "Karjat - MSRDC Corridor",
      "state": "Maharashtra",
      "iconUrl": "https://tiles.mapmagician.in/dpplans/0imagesGIS/msrdc_icon.png",
      "stateIconUrl": "https://tiles.mapmagician.in/dpplans/0imagesGIS/maharashtra.png",
      "centroid": {
        "lat": 18.899163,
        "lng": 73.273738,
        "minZoom": null,
        "maxZoom": null
      },
      "bbox": [
        73.166912,
        18.816128,
        73.344027,
        19.000365
      ],
      "villages": [
        {
          "name": "Karjat – MSRDC Corridor",
          "lat": 18.928428,
          "lng": 73.26452
        },
        {
          "name": "Anjrun, Tal: Khalapur",
          "lat": 18.825798223261454,
          "lng": 73.31235329667423
        },
        {
          "name": "Avalas/Awalas, Tal: Karjat",
          "lat": 18.883096173714367,
          "lng": 73.32480306670095
        },
        {
          "name": "Bhilvale/Bhilwale, Tal: Khalapur",
          "lat": 18.899988912541815,
          "lng": 73.27579194398619
        },
        {
          "name": "Borgaon Bk., Tal: Khalapur",
          "lat": 18.928266035309147,
          "lng": 73.26606668843793
        },
        {
          "name": "Borgaon Kh., Tal: Khalapur",
          "lat": 18.944903421240124,
          "lng": 73.27232752688168
        },
        {
          "name": "Dolavali/Dolawali, Tal: Khalapur",
          "lat": 18.835966483537383,
          "lng": 73.3198163124379
        },
        {
          "name": "Ghodivali/Ghodiwali, Tal: Khalapur",
          "lat": 18.834668558744628,
          "lng": 73.30005250438299
        },
        {
          "name": "Kalote Mokashi, Tal: Khalapur",
          "lat": 18.86209244898505,
          "lng": 73.28161539035712
        },
        {
          "name": "Kalote Rayati, Tal: Khalapur",
          "lat": 18.8548395001014,
          "lng": 73.2715997832104
        },
        {
          "name": "Kandroli Tarf Boreti, Tal: Khalapur",
          "lat": 18.83226557526266,
          "lng": 73.30653658841207
        },
        {
          "name": "Kandroli Tarf Wankhal/Kandroli Tarf Vankhal, Tal: Khalapur",
          "lat": 18.88199814768798,
          "lng": 73.26249149241141
        },
        {
          "name": "Mankivali/Mankiwali, Tal: Khalapur",
          "lat": 18.83020911152956,
          "lng": 73.31714639367277
        },
        {
          "name": "Morbe, Tal: Khalapur",
          "lat": 18.911895626684956,
          "lng": 73.26049629659138
        },
        {
          "name": "Nadode, Tal: Khalapur",
          "lat": 18.844938952257927,
          "lng": 73.25595380568343
        },
        {
          "name": "Nangurle, Tal: Karjat",
          "lat": 18.90045678041666,
          "lng": 73.30642975611458
        },
        {
          "name": "Nanivali/Naniwali, Tal: Khalapur",
          "lat": 18.922036555612273,
          "lng": 73.24628609644066
        },
        {
          "name": "Navandhe/Nawandhe, Tal: Khalapur",
          "lat": 18.840648685425943,
          "lng": 73.31326387159622
        },
        {
          "name": "Nigdoli, Tal: Khalapur",
          "lat": 18.85925431607405,
          "lng": 73.24546974754993
        },
        {
          "name": "Padaghe, Tal: Khalapur",
          "lat": 18.91962696165303,
          "lng": 73.25702659330922
        },
        {
          "name": "Palasdari, Tal: Karjat",
          "lat": 18.873182521835417,
          "lng": 73.31687010101635
        },
        {
          "name": "Pali Bk., Tal: Khalapur",
          "lat": 18.909343079958003,
          "lng": 73.29474265530976
        },
        {
          "name": "Parade, Tal: Khalapur",
          "lat": 18.89660586192558,
          "lng": 73.17031969724125
        },
        {
          "name": "Shengaon, Tal: Khalapur",
          "lat": 18.82389183113774,
          "lng": 73.33321093036604
        },
        {
          "name": "Sondewadi/Sondevadi, Tal: Khalapur",
          "lat": 18.963493270685536,
          "lng": 73.2834753828187
        },
        {
          "name": "Talawali/Talavali, Tal: Karjat",
          "lat": 18.856932988099057,
          "lng": 73.31761993536678
        },
        {
          "name": "Tighar, Tal: Karjat",
          "lat": 18.90181113574038,
          "lng": 73.29990082600473
        },
        {
          "name": "Vadvihir/Wadwihir, Tal: Khalapur",
          "lat": 18.926400223437298,
          "lng": 73.27730721145929
        },
        {
          "name": "Varne/Warne, Tal: Karjat",
          "lat": 18.89062832855754,
          "lng": 73.30801372938002
        },
        {
          "name": "Vinegaon/Winegaon, Tal: Khalapur",
          "lat": 18.875539966019137,
          "lng": 73.27099961132431
        },
        {
          "name": "Warose Tarf Wankhal/Varose Tarf Vankhal, Tal: Khalapur",
          "lat": 18.96406857194788,
          "lng": 73.24985010528113
        },
        {
          "name": "Wavarle/Vawarle, Tal: Khalapur",
          "lat": 18.923116131153254,
          "lng": 73.29129737896795
        }
      ],
      "sourceLink": "https://msrdc.in/Site/Upload/Event/Modified%20Draft%20Development%20plan%20of%20MSRDC%20SPA%20U.pdf",
      "price": "",
      "focal": {
        "lat": 18.928428,
        "lng": 73.26452,
        "source": "village:Karjat – MSRDC Corridor",
        "zoom": 13
      },
      "fullMapUrl": "https://dpplans.com/maps.html?lat=18.928428&lng=73.26452&zoom=13",
      "embedUrl": "https://dpplans.com/maps.html?lat=18.928428&lng=73.26452&zoom=13&embed=1",
      "nearby": [
        {
          "slug": "pune-mumbai-msrdc-corridor",
          "displayName": "Pune–Mumbai – MSRDC Corridor",
          "shortName": "Pune-Mumbai - MSRDC Corridor",
          "distanceKm": 6.1
        },
        {
          "slug": "naina-development-plan",
          "displayName": "NAINA Region",
          "shortName": "NAINA Region",
          "distanceKm": 14.6
        },
        {
          "slug": "kharghar-dp-plan",
          "displayName": "Kharghar / Panvel Municipal Corporation Raigad",
          "shortName": "Kharghar",
          "distanceKm": 24.2
        },
        {
          "slug": "navi-mumbai-municipal-corporation-dp-plan",
          "displayName": "Navi Mumbai Municipal Corporation",
          "shortName": "Navi Mumbai Municipal Corporation",
          "distanceKm": 34.6
        },
        {
          "slug": "mumbai-eastern-suburbs-dp-plan",
          "displayName": "Mumbai Eastern Suburbs",
          "shortName": "Mumbai Eastern Suburbs",
          "distanceKm": 44.8
        }
      ],
      "faqs": [
        {
          "q": "Where can I view the Karjat - MSRDC Corridor Development Plan online?",
          "a": "You can view the Karjat – MSRDC Corridor DP map on Map Magician’s interactive viewer. The plan is overlaid on satellite imagery so you can identify zones, reservations and road lines for any plot in Karjat - MSRDC Corridor, Maharashtra."
        },
        {
          "q": "Is the Karjat - MSRDC Corridor DP map official?",
          "a": "The published Development Plan referenced here mirrors the source documents from Maharashtra Town Planning. The official PDFs are linked from the source: https://msrdc.in/Site/Upload/Event/Modified%20Draft%20Development%20plan%20of%20MSRDC%20SPA%20U.pdf"
        },
        {
          "q": "Can I see specific villages or sectors inside Karjat - MSRDC Corridor?",
          "a": "Yes — 32 sub-locations are indexed inside Karjat - MSRDC Corridor, including Karjat – MSRDC Corridor, Anjrun, Tal: Khalapur, Avalas/Awalas, Tal: Karjat, Bhilvale/Bhilwale, Tal: Khalapur and more. Each can be opened directly from the search bar on the map."
        },
        {
          "q": "Is access free?",
          "a": "Browsing the Karjat - MSRDC Corridor region is free up to zoom level 14. High-detail (zoom 15–18) imagery is unlocked with a 7-day access pass."
        },
        {
          "q": "What devices does the Karjat - MSRDC Corridor DP viewer work on?",
          "a": "The viewer runs in any modern browser — desktop, tablet, or mobile. There is also a native Android app for offline access."
        }
      ],
      "features": [
        "Interactive zoom and pan over the entire Karjat - MSRDC Corridor Development Plan area",
        "Satellite + DP overlay so plot boundaries align with on-ground features",
        "Search by survey number, village or landmark inside Karjat - MSRDC Corridor",
        "Measure distances and areas directly on the Karjat - MSRDC Corridor map",
        "Mobile-friendly — view Karjat - MSRDC Corridor DP zones on the go",
        "32 indexed sub-locations inside Karjat - MSRDC Corridor"
      ]
    },
    {
      "slug": "kharghar-dp-plan",
      "productPurchaseID": "panveldevelopmentplan",
      "menuKey": "PanvelMaharashtra",
      "displayName": "Kharghar / Panvel Municipal Corporation Raigad",
      "rawDistrictName": "Kharghar / Panvel Municipal Corporation Raigad",
      "shortName": "Kharghar",
      "state": "Maharashtra",
      "iconUrl": "https://tiles.mapmagician.in/dpplans/0imagesGIS/icon_palghar.png",
      "stateIconUrl": "https://tiles.mapmagician.in/dpplans/0imagesGIS/maharashtra.png",
      "centroid": {
        "lat": 19.045856,
        "lng": 73.103727,
        "minZoom": null,
        "maxZoom": null
      },
      "bbox": [
        73.043807,
        18.968074,
        73.154451,
        19.114769
      ],
      "villages": [
        {
          "name": "Panvel",
          "lat": 18.98700839611837,
          "lng": 73.11562180670944
        },
        {
          "name": "Kharghar",
          "lat": 19.044407,
          "lng": 73.0718974
        },
        {
          "name": "Adivali/Adiwali, Tal: Panvel",
          "lat": 19.098924702022252,
          "lng": 73.06737721831132
        },
        {
          "name": "Ambetarakhar(Navi Mum (Panvel))/Ambetarakhar(Nawi Mum (Panwel)), Tal: Panvel",
          "lat": 19.031784566572767,
          "lng": 73.10629286701987
        },
        {
          "name": "Anjap, Tal: Karjat",
          "lat": 18.99981186519217,
          "lng": 73.38646926790683
        },
        {
          "name": "Asudgaon(Navi Mum (Panvel, Ra))/Asudgaon(Nawi Mum (Panwel, Ra)), Tal: Panvel",
          "lat": 19.01145330241749,
          "lng": 73.11589329428601
        },
        {
          "name": "Bid, Tal: Panvel",
          "lat": 19.086409143429425,
          "lng": 73.06909454615142
        },
        {
          "name": "Boriwali/Borivali, Tal: Karjat",
          "lat": 19.021576050868582,
          "lng": 73.40091889942913
        },
        {
          "name": "Chal, Tal: Panvel",
          "lat": 19.095681895737577,
          "lng": 73.11876812348558
        },
        {
          "name": "Devichapada/Dewichapada, Tal: Panvel",
          "lat": 19.071313959700227,
          "lng": 73.14099816868777
        },
        {
          "name": "Dhamni, Tal: Karjat",
          "lat": 18.99328234892509,
          "lng": 73.49557337492895
        },
        {
          "name": "Dhotre, Tal: Karjat",
          "lat": 19.025526668798317,
          "lng": 73.46928059396163
        },
        {
          "name": "Ghot, Tal: Panvel",
          "lat": 19.08729535124663,
          "lng": 73.11266659458713
        },
        {
          "name": "Kalamboli(Navi Mum (Panvel, Ra))/Kalamboli(Nawi Mum (Panwel, Ra)), Tal: Panvel",
          "lat": 19.023844416330157,
          "lng": 73.10630463882966
        },
        {
          "name": "Kalundre (CT), Tal: Panvel",
          "lat": 18.977038089278597,
          "lng": 73.12623765523459
        },
        {
          "name": "Kamothe(Navi Mum (Panvel, Ra))/Kamothe(Nawi Mum (Panwel, Ra)), Tal: Panvel",
          "lat": 19.01705546692651,
          "lng": 73.09000241381462
        },
        {
          "name": "Karavale Bk./Karawale Bk., Tal: Panvel",
          "lat": 19.101769512175025,
          "lng": 73.11062864752408
        },
        {
          "name": "Kasbe panvel(Panvel (M Cl))/Kasbe panwel(Panwel (M Cl)), Tal: Panvel",
          "lat": 19.001365746668554,
          "lng": 73.11206852344283
        },
        {
          "name": "Kashele, Tal: Karjat",
          "lat": 19.001849249662634,
          "lng": 73.41502565512715
        },
        {
          "name": "Khanand, Tal: Karjat",
          "lat": 19.00807294393983,
          "lng": 73.45303406536227
        },
        {
          "name": "Kharghar, Tal: Panvel",
          "lat": 19.03872543928301,
          "lng": 73.0636536161505
        },
        {
          "name": "Kikavi/Kikawi, Tal: Karjat",
          "lat": 19.022337598167805,
          "lng": 73.43508766527226
        },
        {
          "name": "Kirvali/Kirwali, Tal: Panvel",
          "lat": 19.10276990762094,
          "lng": 73.06211405193585
        },
        {
          "name": "Kolhekhar(Navi Mum (Panvel, Ra))/Kolhekhar(Nawi Mum (Panwel, Ra)), Tal: Panvel",
          "lat": 19.033954942488137,
          "lng": 73.08980088394206
        },
        {
          "name": "Kothimbe, Tal: Karjat",
          "lat": 18.999195387045145,
          "lng": 73.4435089418671
        },
        {
          "name": "Koyana Velhe/Koyana Welhe, Tal: Panvel",
          "lat": 19.08135118736432,
          "lng": 73.11637838655886
        },
        {
          "name": "Mograj, Tal: Karjat",
          "lat": 18.997483017693988,
          "lng": 73.46599969245345
        },
        {
          "name": "Nagzari, Tal: Panvel",
          "lat": 19.106110180934362,
          "lng": 73.12006470776205
        },
        {
          "name": "Naldhe, Tal: Karjat",
          "lat": 19.02905134375353,
          "lng": 73.4185034123926
        },
        {
          "name": "Navandekhar(Navi Mum (Panvel))/Nawandekhar(Nawi Mum (Panwel)), Tal: Panvel",
          "lat": 19.04926576462445,
          "lng": 73.09459778144148
        },
        {
          "name": "Navdhe(Navi Mum (Panvel, Ra))/Nawdhe(Nawi Mum (Panwel, Ra)), Tal: Panvel",
          "lat": 19.05278439197303,
          "lng": 73.10339852288993
        },
        {
          "name": "Owe/Ove, Tal: Panvel",
          "lat": 19.065684319743497,
          "lng": 73.07135095967057
        },
        {
          "name": "Padghe, Tal: Panvel",
          "lat": 19.0523347243808,
          "lng": 73.12108856797796
        },
        {
          "name": "Pale Kh., Tal: Panvel",
          "lat": 19.07414524069965,
          "lng": 73.14234015252744
        },
        {
          "name": "Pendhar, Tal: Panvel",
          "lat": 19.065293891082135,
          "lng": 73.10344211057495
        },
        {
          "name": "Pinglas, Tal: Karjat",
          "lat": 19.012104487863375,
          "lng": 73.4709014730042
        },
        {
          "name": "Pisarve/Pisarwe, Tal: Panvel",
          "lat": 19.091494586981263,
          "lng": 73.09142073535533
        },
        {
          "name": "Rodpali(Navi Mum (Panvel, Ra))/Rodpali(Nawi Mum (Panwel, Ra)), Tal: Panvel",
          "lat": 19.04218644282734,
          "lng": 73.1087207220605
        },
        {
          "name": "Rohinjan, Tal: Panvel",
          "lat": 19.086124607173044,
          "lng": 73.07861566671136
        },
        {
          "name": "Shilar, Tal: Karjat",
          "lat": 19.02506797872946,
          "lng": 73.45416677312647
        },
        {
          "name": "Shingdhol, Tal: Karjat",
          "lat": 19.02477895168134,
          "lng": 73.48499211427551
        },
        {
          "name": "Taloje Majkur, Tal: Panvel",
          "lat": 19.087587410875074,
          "lng": 73.09995169457311
        },
        {
          "name": "TalojeTarfPachnand(Taloje Panchnad), Tal: Panvel",
          "lat": 19.06405415674006,
          "lng": 73.08594920120419
        },
        {
          "name": "Thembhode(Navi Mum (Panvel, Ra))/Thembhode(Nawi Mum (Panwel, Ra)), Tal: Panvel",
          "lat": 19.02508519641624,
          "lng": 73.1213805276538
        },
        {
          "name": "Tondre, Tal: Panvel",
          "lat": 19.07521319516326,
          "lng": 73.12802809449718
        },
        {
          "name": "Turbhe, Tal: Panvel",
          "lat": 19.108789140077317,
          "lng": 73.09379632280874
        },
        {
          "name": "Vaghivali/Waghiwali, Tal: Panvel",
          "lat": 19.00838160405297,
          "lng": 73.05684082704398
        },
        {
          "name": "Wadwali(Navi Mum (Panvel, Ra))/Vadvali(Nawi Mum (Panwel, Ra)), Tal: Panvel",
          "lat": 19.032957350610914,
          "lng": 73.1196863450554
        }
      ],
      "sourceLink": "",
      "price": "50",
      "focal": {
        "lat": 18.98700839611837,
        "lng": 73.11562180670944,
        "source": "village:Panvel",
        "zoom": 13
      },
      "fullMapUrl": "https://dpplans.com/maps.html?lat=18.98700839611837&lng=73.11562180670944&zoom=13",
      "embedUrl": "https://dpplans.com/maps.html?lat=18.98700839611837&lng=73.11562180670944&zoom=13&embed=1",
      "nearby": [
        {
          "slug": "navi-mumbai-municipal-corporation-dp-plan",
          "displayName": "Navi Mumbai Municipal Corporation",
          "shortName": "Navi Mumbai Municipal Corporation",
          "distanceKm": 10.8
        },
        {
          "slug": "naina-development-plan",
          "displayName": "NAINA Region",
          "shortName": "NAINA Region",
          "distanceKm": 12.3
        },
        {
          "slug": "mumbai-eastern-suburbs-dp-plan",
          "displayName": "Mumbai Eastern Suburbs",
          "shortName": "Mumbai Eastern Suburbs",
          "distanceKm": 21.1
        },
        {
          "slug": "thane-dp-plan",
          "displayName": "Thane/Dombivali",
          "shortName": "Thane",
          "distanceKm": 22.2
        },
        {
          "slug": "karjat-msrdc-corridor",
          "displayName": "Karjat – MSRDC Corridor",
          "shortName": "Karjat - MSRDC Corridor",
          "distanceKm": 24.2
        }
      ],
      "faqs": [
        {
          "q": "Where can I view the Kharghar Development Plan online?",
          "a": "You can view the Kharghar / Panvel Municipal Corporation Raigad DP map on Map Magician’s interactive viewer. The plan is overlaid on satellite imagery so you can identify zones, reservations and road lines for any plot in Kharghar, Maharashtra."
        },
        {
          "q": "Is the Kharghar DP map official?",
          "a": "The Development Plan referenced here mirrors the latest publication from the local planning authority for Kharghar."
        },
        {
          "q": "Can I see specific villages or sectors inside Kharghar?",
          "a": "Yes — 48 sub-locations are indexed inside Kharghar, including Panvel, Kharghar, Adivali/Adiwali, Tal: Panvel, Ambetarakhar(Navi Mum (Panvel))/Ambetarakhar(Nawi Mum (Panwel)), Tal: Panvel and more. Each can be opened directly from the search bar on the map."
        },
        {
          "q": "Is access free?",
          "a": "Browsing the Kharghar region is free up to zoom level 14. High-detail (zoom 15–18) imagery is unlocked with a 7-day access pass."
        },
        {
          "q": "What devices does the Kharghar DP viewer work on?",
          "a": "The viewer runs in any modern browser — desktop, tablet, or mobile. There is also a native Android app for offline access."
        }
      ],
      "features": [
        "Interactive zoom and pan over the entire Kharghar Development Plan area",
        "Satellite + DP overlay so plot boundaries align with on-ground features",
        "Search by survey number, village or landmark inside Kharghar",
        "Measure distances and areas directly on the Kharghar map",
        "Mobile-friendly — view Kharghar DP zones on the go",
        "48 indexed sub-locations inside Kharghar"
      ]
    },
    {
      "slug": "kolhapur-dp-plan",
      "productPurchaseID": "kolhapurdpplan",
      "menuKey": "KolhapurMaharashtra",
      "displayName": "Kolhapur",
      "rawDistrictName": "Kolhapur",
      "shortName": "Kolhapur",
      "state": "Maharashtra",
      "iconUrl": "https://tiles.mapmagician.in/dpplans/0imagesGIS/icon_kolhapur.png",
      "stateIconUrl": "https://tiles.mapmagician.in/dpplans/0imagesGIS/maharashtra.png",
      "centroid": {
        "lat": 16.50644,
        "lng": 74.34758,
        "minZoom": null,
        "maxZoom": null
      },